{
"type": "FeatureCollection",
"name": "Geolocation of  Communities in BlantyreV3",
"features": [
{"type": "Feature", "geometry": {"type": "Point", "coordinates": [35.02012317, -15.8016044, 1078.0641662171]}, "properties": {"Data collector name": "Kingsley Kajanga", "Health facility name": "Gateway", "Village name": "Queens", "_id": 249891742, "_uuid": "8e71e407-fb77-440c-a38d-90031a55a7c8", "_submission_time": "2023-07-03T07:02:53", "_status": "submitted_via_web", "__version__": "vPgp5uDTCetJnwuiTjaEws", "_index": 1}},
{"type": "Feature", "geometry": {"type": "Point", "coordinates": [35.01418651, -15.80878731, 1077.7656669617]}, "properties": {"Data collector name": "Kingsley Kajanga", "Health facility name": "Gateway", "Village name": "Kamba", "_id": 249958947, "_uuid": "ff510697-3400-4c6d-af3d-5a8fa2894a54", "_submission_time": "2023-07-03T12:14:19", "_status": "submitted_via_web", "__version__": "vPgp5uDTCetJnwuiTjaEws", "_index": 2}},
{"type": "Feature", "geometry": {"type": "Point", "coordinates": [35.02085241, -15.81813395, 1077.7874708176]}, "properties": {"Data collector name": "Kingsley Kajanga", "Health facility name": "Gateway", "Village name": "Nkolokosa", "_id": 249958950, "_uuid": "0ee8af01-7c94-4418-9170-91fe8e5ba47e", "_submission_time": "2023-07-03T12:14:19", "_status": "submitted_via_web", "__version__": "vPgp5uDTCetJnwuiTjaEws", "_index": 3}},
{"type": "Feature", "geometry": {"type": "Point", "coordinates": [35.0227265, -15.78345721, 1065.818632775]}, "properties": {"Data collector name": "Kingsley Kajanga", "Health facility name": "Gateway", "Village name": "HHI", "_id": 249958952, "_uuid": "22b8a21c-6688-4bb8-b53a-d40e94ba0edc", "_submission_time": "2023-07-03T12:14:20", "_status": "submitted_via_web", "__version__": "vPgp5uDTCetJnwuiTjaEws", "_index": 4}},
{"type": "Feature", "geometry": {"type": "Point", "coordinates": [35.03227342, -15.80820989, 948.2618904114]}, "properties": {"Data collector name": "Kingsley Kajanga", "Health facility name": "Gateway", "Village name": "Chichiri Prison", "_id": 249958953, "_uuid": "bfe96b1a-8ed2-449e-b554-cb5b7a15e289", "_submission_time": "2023-07-03T12:14:20", "_status": "submitted_via_web", "__version__": "vPgp5uDTCetJnwuiTjaEws", "_index": 5}},
{"type": "Feature", "geometry": {"type": "Point", "coordinates": [35.03910161, -15.77950875, 1010.3886871338]}, "properties": {"Data collector name": "Kingsley Kajanga", "Health facility name": "Gateway", "Village name": "Ndirande", "_id": 249958954, "_uuid": "7e9d7c53-bdca-400f-b977-2cfea1bab77e", "_submission_time": "2023-07-03T12:14:20", "_status": "submitted_via_web", "__version__": "vPgp5uDTCetJnwuiTjaEws", "_index": 6}},
{"type": "Feature", "geometry": {"type": "Point", "coordinates": [35.01734608, -15.81549721, -500.0]}, "properties": {"Data collector name": "Kingsley Kajanga", "Health facility name": "Gateway", "Village name": "Chilobwe", "_id": 249958955, "_uuid": "acecb641-9ef8-4761-a54f-fcfb6eb22ab0", "_submission_time": "2023-07-03T12:14:20", "_status": "submitted_via_web", "__version__": "vPgp5uDTCetJnwuiTjaEws", "_index": 7}},
{"type": "Feature", "geometry": {"type": "Point", "coordinates": [35.0184021, -15.77389545, 1049.9300537109]}, "properties": {"Data collector name": "Kingsley Kajanga", "Health facility name": "Gateway", "Village name": "Mbayani", "_id": 249958959, "_uuid": "614489a5-4f53-4c0b-915a-c63b7881c65d", "_submission_time": "2023-07-03T12:14:20", "_status": "submitted_via_web", "__version__": "vPgp5uDTCetJnwuiTjaEws", "_index": 8}},
{"type": "Feature", "geometry": {"type": "Point", "coordinates": [35.01840123, -15.77389282, 1063.7555198669]}, "properties": {"Data collector name": "Kingsley Kajanga", "Health facility name": "Gateway", "Village name": "Nyambadwe", "_id": 249958960, "_uuid": "18ce9f41-1e38-42e5-bf53-376ce9057105", "_submission_time": "2023-07-03T12:14:20", "_status": "submitted_via_web", "__version__": "vPgp5uDTCetJnwuiTjaEws", "_index": 9}},
{"type": "Feature", "geometry": {"type": "Point", "coordinates": [35.00598755, -15.7454895, 901.7600097656]}, "properties": {"Data collector name": "Kingsley Kajanga", "Health facility name": "Gateway", "Village name": "Suya", "_id": 249958962, "_uuid": "df4b8223-302d-4028-893b-777a66f47056", "_submission_time": "2023-07-03T12:14:20", "_status": "submitted_via_web", "__version__": "vPgp5uDTCetJnwuiTjaEws", "_index": 10}},
{"type": "Feature", "geometry": {"type": "Point", "coordinates": [35.00294803, -15.72175921, 944.5006542206]}, "properties": {"Data collector name": "Kingsley Kajanga", "Health facility name": "Gateway", "Village name": "Naperi", "_id": 249958965, "_uuid": "80e5ab3e-0d98-43de-9693-57549d406ebe", "_submission_time": "2023-07-03T12:14:20", "_status": "submitted_via_web", "__version__": "vPgp5uDTCetJnwuiTjaEws", "_index": 11}},
{"type": "Feature", "geometry": {"type": "Point", "coordinates": [35.01557902, -15.78615262, 1066.4106836319]}, "properties": {"Data collector name": "Kingsley Kajanga", "Health facility name": "Gateway", "Village name": "Wenera", "_id": 249958967, "_uuid": "4527e8a3-dd87-4bae-8b0c-0227f29bae15", "_submission_time": "2023-07-03T12:14:21", "_status": "submitted_via_web", "__version__": "vPgp5uDTCetJnwuiTjaEws", "_index": 12}},
{"type": "Feature", "geometry": {"type": "Point", "coordinates": [35.0184021, -15.77389545, 1049.9300537109]}, "properties": {"Data collector name": "Kingsley Kajanga", "Health facility name": "Gateway", "Village name": "Chirimba", "_id": 249958968, "_uuid": "aab4a5e1-291e-49f4-a064-5401b55a3103", "_submission_time": "2023-07-03T12:14:21", "_status": "submitted_via_web", "__version__": "vPgp5uDTCetJnwuiTjaEws", "_index": 13}},
{"type": "Feature", "geometry": {"type": "Point", "coordinates": [34.99967467, -15.77229878, 979.7087935773]}, "properties": {"Data collector name": "Kingsley Kajanga", "Health facility name": "Gateway", "Village name": "Kabula", "_id": 249958969, "_uuid": "d49a6a64-732b-4396-a199-cc560574a9cd", "_submission_time": "2023-07-03T12:14:21", "_status": "submitted_via_web", "__version__": "vPgp5uDTCetJnwuiTjaEws", "_index": 14}},
{"type": "Feature", "geometry": {"type": "Point", "coordinates": [34.99345874, -15.771262, 982.3607711792]}, "properties": {"Data collector name": "Kingsley Kajanga", "Health facility name": "Gateway", "Village name": "M\u2019bwelera", "_id": 249958971, "_uuid": "753b95a5-8808-47d4-b6d7-bc4a3bbe052a", "_submission_time": "2023-07-03T12:14:21", "_status": "submitted_via_web", "__version__": "vPgp5uDTCetJnwuiTjaEws", "_index": 15}},
{"type": "Feature", "geometry": {"type": "Point", "coordinates": [34.99067181, -15.78041206, 984.3094797134]}, "properties": {"Data collector name": "Kingsley Kajanga", "Health facility name": "Gateway", "Village name": "Namiwawa", "_id": 249958972, "_uuid": "5b0dab39-b84f-484b-86c8-33476fd62d06", "_submission_time": "2023-07-03T12:14:21", "_status": "submitted_via_web", "__version__": "vPgp5uDTCetJnwuiTjaEws", "_index": 16}},
{"type": "Feature", "geometry": {"type": "Point", "coordinates": [35.0024231, -15.75484028, 1049.9300537109]}, "properties": {"Data collector name": "Kingsley Kajanga", "Health facility name": "Gateway", "Village name": "Chemusa", "_id": 249958973, "_uuid": "bc7c71f2-2f74-4353-8ad0-65315d47aa1a", "_submission_time": "2023-07-03T12:14:21", "_status": "submitted_via_web", "__version__": "vPgp5uDTCetJnwuiTjaEws", "_index": 17}},
{"type": "Feature", "geometry": {"type": "Point", "coordinates": [34.98652391, -15.77022684, 986.1396245956]}, "properties": {"Data collector name": "Kingsley Kajanga", "Health facility name": "Gateway", "Village name": "Chiromoni", "_id": 249958974, "_uuid": "ceffe91e-f4b5-4c2b-85cb-8a9d5e6b2bd2", "_submission_time": "2023-07-03T12:14:21", "_status": "submitted_via_web", "__version__": "vPgp5uDTCetJnwuiTjaEws", "_index": 18}},
{"type": "Feature", "geometry": {"type": "Point", "coordinates": [34.99876893, -15.7874917, -500.0]}, "properties": {"Data collector name": "Kingsley Kajanga", "Health facility name": "Gateway", "Village name": "Sunnyside", "_id": 249958975, "_uuid": "9af36175-2c55-4a3f-8c79-15da99daa5b5", "_submission_time": "2023-07-03T12:14:21", "_status": "submitted_via_web", "__version__": "vPgp5uDTCetJnwuiTjaEws", "_index": 19}},
{"type": "Feature", "geometry": {"type": "Point", "coordinates": [34.99876893, -15.7874917, -500.0]}, "properties": {"Data collector name": "Kingsley Kajanga", "Health facility name": "Gateway", "Village name": "Manyowe", "_id": 249958976, "_uuid": "a386c2f5-791b-43ad-a030-9207a1f00dfe", "_submission_time": "2023-07-03T12:14:21", "_status": "submitted_via_web", "__version__": "vPgp5uDTCetJnwuiTjaEws", "_index": 20}},
{"type": "Feature", "geometry": {"type": "Point", "coordinates": [34.99876893, -15.7874917, -500.0]}, "properties": {"Data collector name": "Kingsley Kajanga", "Health facility name": "Gateway", "Village name": "Sigerege", "_id": 249958977, "_uuid": "15d29395-6392-4eab-b4e5-a8ba11bf7286", "_submission_time": "2023-07-03T12:14:21", "_status": "submitted_via_web", "__version__": "vPgp5uDTCetJnwuiTjaEws", "_index": 21}},
{"type": "Feature", "geometry": {"type": "Point", "coordinates": [34.99630306, -15.80019792, 991.4277954102]}, "properties": {"Data collector name": "Kingsley Kajanga", "Health facility name": "Gateway", "Village name": "Chilumba", "_id": 249958978, "_uuid": "8f02f47a-85ef-4339-9a84-193b633cddfb", "_submission_time": "2023-07-03T12:14:21", "_status": "submitted_via_web", "__version__": "vPgp5uDTCetJnwuiTjaEws", "_index": 22}},
{"type": "Feature", "geometry": {"type": "Point", "coordinates": [35.00618164, -15.7881441, 1033.7182216644]}, "properties": {"Data collector name": "Kingsley Kajanga", "Health facility name": "Gateway", "Village name": "BT market", "_id": 249958979, "_uuid": "9e8aa8b4-d6c9-4997-b817-292280794eb6", "_submission_time": "2023-07-03T12:14:21", "_status": "submitted_via_web", "__version__": "vPgp5uDTCetJnwuiTjaEws", "_index": 23}},
{"type": "Feature", "geometry": {"type": "Point", "coordinates": [35.01066863, -15.80355942, 1039.2906866074]}, "properties": {"Data collector name": "Kingsley Kajanga", "Health facility name": "Gateway", "Village name": "Mount plesant", "_id": 249958980, "_uuid": "b06028f7-d1ec-4457-84b8-1250e84d2b6f", "_submission_time": "2023-07-03T12:14:22", "_status": "submitted_via_web", "__version__": "vPgp5uDTCetJnwuiTjaEws", "_index": 24}},
{"type": "Feature", "geometry": {"type": "Point", "coordinates": [35.01150275, -15.79334999, 1038.882604599]}, "properties": {"Data collector name": "Kingsley Kajanga", "Health facility name": "Gateway", "Village name": "Mandala", "_id": 249958981, "_uuid": "15fcc649-52cb-47ca-a9c8-b93d29887484", "_submission_time": "2023-07-03T12:14:22", "_status": "submitted_via_web", "__version__": "vPgp5uDTCetJnwuiTjaEws", "_index": 25}},
{"type": "Feature", "geometry": {"type": "Point", "coordinates": [35.00475779, -15.83175085, 1049.9127149582]}, "properties": {"Data collector name": "Kingsley Kajanga", "Health facility name": "Gateway", "Village name": "Mpemba", "_id": 249958982, "_uuid": "b6318ab6-a412-4708-8cf2-9d8d793d1651", "_submission_time": "2023-07-03T12:14:22", "_status": "submitted_via_web", "__version__": "vPgp5uDTCetJnwuiTjaEws", "_index": 26}},
{"type": "Feature", "geometry": {"type": "Point", "coordinates": [35.00475779, -15.83175085, 1049.9127149582]}, "properties": {"Data collector name": "Kingsley Kajanga", "Health facility name": "Gateway", "Village name": "Green Corner", "_id": 249958983, "_uuid": "41587340-5832-4e42-9a06-0a641902bcb1", "_submission_time": "2023-07-03T12:14:22", "_status": "submitted_via_web", "__version__": "vPgp5uDTCetJnwuiTjaEws", "_index": 27}},
{"type": "Feature", "geometry": {"type": "Point", "coordinates": [35.0107507, -15.80361402, 1040.0958929062]}, "properties": {"Data collector name": "Kingsley Kajanga", "Health facility name": "Gateway", "Village name": "Chimwakhunda Dam", "_id": 249958984, "_uuid": "af1104a7-4d25-4db5-ab8e-a07f0b91dee8", "_submission_time": "2023-07-03T12:14:22", "_status": "submitted_via_web", "__version__": "vPgp5uDTCetJnwuiTjaEws", "_index": 28}},
{"type": "Feature", "geometry": {"type": "Point", "coordinates": [34.99740635, -15.83343861, 1016.6924142838]}, "properties": {"Data collector name": "Kingsley Kajanga", "Health facility name": "Gateway", "Village name": "Baluti", "_id": 249958985, "_uuid": "66479605-4290-4b2e-9b04-e7bd9dd0e5ea", "_submission_time": "2023-07-03T12:14:22", "_status": "submitted_via_web", "__version__": "vPgp5uDTCetJnwuiTjaEws", "_index": 29}},
{"type": "Feature", "geometry": {"type": "Point", "coordinates": [34.99740635, -15.83343861, 1016.6924142838]}, "properties": {"Data collector name": "Kingsley Kajanga", "Health facility name": "Gateway", "Village name": "Manase", "_id": 249958987, "_uuid": "05144de8-a149-43fe-9946-751bfa4070c9", "_submission_time": "2023-07-03T12:14:22", "_status": "submitted_via_web", "__version__": "vPgp5uDTCetJnwuiTjaEws", "_index": 30}},
{"type": "Feature", "geometry": {"type": "Point", "coordinates": [34.99740635, -15.83343861, 1016.6924142838]}, "properties": {"Data collector name": "Kingsley Kajanga", "Health facility name": "Gateway", "Village name": "Kampala", "_id": 249958989, "_uuid": "d2a589e3-5afe-4178-a689-c4857774456b", "_submission_time": "2023-07-03T12:14:22", "_status": "submitted_via_web", "__version__": "vPgp5uDTCetJnwuiTjaEws", "_index": 31}},
{"type": "Feature", "geometry": {"type": "Point", "coordinates": [34.99740635, -15.83343861, 1016.6924142838]}, "properties": {"Data collector name": "Kingsley Kajanga", "Health facility name": "Gateway", "Village name": "Mzikiti", "_id": 249958990, "_uuid": "c6daf4be-407a-45da-b149-1e9f6e964dc3", "_submission_time": "2023-07-03T12:14:22", "_status": "submitted_via_web", "__version__": "vPgp5uDTCetJnwuiTjaEws", "_index": 32}},
{"type": "Feature", "geometry": {"type": "Point", "coordinates": [34.99003464, -15.82176663, 1007.9971885681]}, "properties": {"Data collector name": "Kingsley Kajanga", "Health facility name": "Gateway", "Village name": "Mango", "_id": 249958991, "_uuid": "ecd0ddbe-f07d-4b28-8dbc-1e4f141fcfd7", "_submission_time": "2023-07-03T12:14:22", "_status": "submitted_via_web", "__version__": "vPgp5uDTCetJnwuiTjaEws", "_index": 33}},
{"type": "Feature", "geometry": {"type": "Point", "coordinates": [34.98915502, -15.82036551, 996.6877603531]}, "properties": {"Data collector name": "Kingsley Kajanga", "Health facility name": "Gateway", "Village name": "Gaka", "_id": 249958992, "_uuid": "faba4817-7873-4295-9308-9243ef21e5e9", "_submission_time": "2023-07-03T12:14:22", "_status": "submitted_via_web", "__version__": "vPgp5uDTCetJnwuiTjaEws", "_index": 34}},
{"type": "Feature", "geometry": {"type": "Point", "coordinates": [34.98915502, -15.82036551, 996.6877603531]}, "properties": {"Data collector name": "Kingsley Kajanga", "Health facility name": "Gateway", "Village name": "Natcholi", "_id": 249958993, "_uuid": "dd6d50a8-f072-4105-a4f5-071ce179e6da", "_submission_time": "2023-07-03T12:14:22", "_status": "submitted_via_web", "__version__": "vPgp5uDTCetJnwuiTjaEws", "_index": 35}},
{"type": "Feature", "geometry": {"type": "Point", "coordinates": [34.98915502, -15.82036551, 996.6877603531]}, "properties": {"Data collector name": "Kingsley Kajanga", "Health facility name": "Gateway", "Village name": "Chiimile", "_id": 249958994, "_uuid": "48d67666-7226-46eb-b999-ef263a020611", "_submission_time": "2023-07-03T12:14:22", "_status": "submitted_via_web", "__version__": "vPgp5uDTCetJnwuiTjaEws", "_index": 36}},
{"type": "Feature", "geometry": {"type": "Point", "coordinates": [34.98915502, -15.82036551, 996.6877603531]}, "properties": {"Data collector name": "Kingsley Kajanga", "Health facility name": "Gateway", "Village name": "Mzeru", "_id": 249958995, "_uuid": "92854ad7-8ac9-4e70-9d98-2a5dae7ab90d", "_submission_time": "2023-07-03T12:14:23", "_status": "submitted_via_web", "__version__": "vPgp5uDTCetJnwuiTjaEws", "_index": 37}},
{"type": "Feature", "geometry": {"type": "Point", "coordinates": [34.98915502, -15.82036551, 996.6877603531]}, "properties": {"Data collector name": "Kingsley Kajanga", "Health facility name": "Gateway", "Village name": "Mkoka", "_id": 249958996, "_uuid": "67c293d6-7016-4b80-ab0d-63f2a009951f", "_submission_time": "2023-07-03T12:14:23", "_status": "submitted_via_web", "__version__": "vPgp5uDTCetJnwuiTjaEws", "_index": 38}},
{"type": "Feature", "geometry": {"type": "Point", "coordinates": [35.0518269, -15.817063, 1164.5]}, "properties": {"Data collector name": "Francis Chimbalanga", "Health facility name": "Limbe", "Village name": "Limbe", "_id": 249962972, "_uuid": "ca39323f-aae6-4a86-8736-6fa0f6b3283b", "_submission_time": "2023-07-03T12:29:56", "_status": "submitted_via_web", "__version__": "vPgp5uDTCetJnwuiTjaEws", "_index": 39}},
{"type": "Feature", "geometry": {"type": "Point", "coordinates": [35.0473245, -15.8124183, 1136.7429077001289]}, "properties": {"Data collector name": "Francis Chimbalanga", "Health facility name": "Limbe", "Village name": "Kanjedza", "_id": 249962975, "_uuid": "7d59e0d7-9c4d-4c6a-b22e-f8ef42bd128f", "_submission_time": "2023-07-03T12:29:56", "_status": "submitted_via_web", "__version__": "vPgp5uDTCetJnwuiTjaEws", "_index": 40}},
{"type": "Feature", "geometry": {"type": "Point", "coordinates": [35.0517474, -15.8236885, 1124.8569781174883]}, "properties": {"Data collector name": "Francis Chimbalanga", "Health facility name": "Limbe", "Village name": "Angelo Goveya", "_id": 249962976, "_uuid": "9f31680e-e478-434e-b7ef-433b3834620c", "_submission_time": "2023-07-03T12:29:57", "_status": "submitted_via_web", "__version__": "vPgp5uDTCetJnwuiTjaEws", "_index": 41}},
{"type": "Feature", "geometry": {"type": "Point", "coordinates": [35.0441117, -15.8408204, 1151.016321116127]}, "properties": {"Data collector name": "Francis Chimbalanga", "Health facility name": "Limbe", "Village name": "Manje", "_id": 249962978, "_uuid": "26e6b414-7d5b-4434-baa0-0110e31107c1", "_submission_time": "2023-07-03T12:29:57", "_status": "submitted_via_web", "__version__": "vPgp5uDTCetJnwuiTjaEws", "_index": 42}},
{"type": "Feature", "geometry": {"type": "Point", "coordinates": [35.0549098, -15.8349353, 1119.7343724211678]}, "properties": {"Data collector name": "Francis Chimbalanga", "Health facility name": "Limbe", "Village name": "Chiwembe", "_id": 249962981, "_uuid": "34651d25-dc75-426f-b592-449535c73f18", "_submission_time": "2023-07-03T12:29:58", "_status": "submitted_via_web", "__version__": "vPgp5uDTCetJnwuiTjaEws", "_index": 43}},
{"type": "Feature", "geometry": {"type": "Point", "coordinates": [35.0609482, -15.8397789, 1141.4028241299093]}, "properties": {"Data collector name": "Francis Chimbalanga", "Health facility name": "Limbe", "Village name": "Misesa", "_id": 249962983, "_uuid": "90437a1e-7888-4fe6-903b-c6c76f3c5e96", "_submission_time": "2023-07-03T12:29:58", "_status": "submitted_via_web", "__version__": "vPgp5uDTCetJnwuiTjaEws", "_index": 44}},
{"type": "Feature", "geometry": {"type": "Point", "coordinates": [35.0740075, -15.8495722, 1101.9293199256063]}, "properties": {"Data collector name": "Francis Chimbalanga", "Health facility name": "Limbe", "Village name": "Chiswe", "_id": 249962985, "_uuid": "7b953200-effb-4fe3-85eb-71c97af78ec7", "_submission_time": "2023-07-03T12:29:59", "_status": "submitted_via_web", "__version__": "vPgp5uDTCetJnwuiTjaEws", "_index": 45}},
{"type": "Feature", "geometry": {"type": "Point", "coordinates": [35.0791637, -15.8472754, 1066.5069477939978]}, "properties": {"Data collector name": "Francis Chimbalanga", "Health facility name": "Limbe", "Village name": "BCA", "_id": 249962988, "_uuid": "a218558f-1aff-437f-b474-7aed33693dca", "_submission_time": "2023-07-03T12:29:59", "_status": "submitted_via_web", "__version__": "vPgp5uDTCetJnwuiTjaEws", "_index": 46}},
{"type": "Feature", "geometry": {"type": "Point", "coordinates": [35.0873294, -15.8287493, 1113.823192124255]}, "properties": {"Data collector name": "Francis Chimbalanga", "Health facility name": "Limbe", "Village name": "Bisani", "_id": 249962990, "_uuid": "5b72423e-9337-43be-8f20-f2ea42db290d", "_submission_time": "2023-07-03T12:30:00", "_status": "submitted_via_web", "__version__": "vPgp5uDTCetJnwuiTjaEws", "_index": 47}},
{"type": "Feature", "geometry": {"type": "Point", "coordinates": [35.0829323, -15.8242602, 1129.3894931832328]}, "properties": {"Data collector name": "Francis Chimbalanga", "Health facility name": "Limbe", "Village name": "Mbayani", "_id": 249962992, "_uuid": "4f9368cc-e6f5-4424-a4ea-b62fef425b35", "_submission_time": "2023-07-03T12:30:00", "_status": "submitted_via_web", "__version__": "vPgp5uDTCetJnwuiTjaEws", "_index": 48}},
{"type": "Feature", "geometry": {"type": "Point", "coordinates": [35.0843376, -15.7921181, 1202.8857817435637]}, "properties": {"Data collector name": "Francis Chimbalanga", "Health facility name": "Limbe", "Village name": "Kachere", "_id": 249962993, "_uuid": "c49c57b7-b5e0-4ac4-b1d4-ff52878b014f", "_submission_time": "2023-07-03T12:30:01", "_status": "submitted_via_web", "__version__": "vPgp5uDTCetJnwuiTjaEws", "_index": 49}},
{"type": "Feature", "geometry": {"type": "Point", "coordinates": [35.0687608, -15.790997, 1175.0]}, "properties": {"Data collector name": "Francis Chimbalanga", "Health facility name": "Limbe", "Village name": "Makhetha", "_id": 249962997, "_uuid": "f0dc8322-debc-4ba8-9cf1-3325af7cd806", "_submission_time": "2023-07-03T12:30:01", "_status": "submitted_via_web", "__version__": "vPgp5uDTCetJnwuiTjaEws", "_index": 50}},
{"type": "Feature", "geometry": {"type": "Point", "coordinates": [35.0574084, -15.8758046, 1155.8701914921403]}, "properties": {"Data collector name": "Francis Chimbalanga", "Health facility name": "Limbe", "Village name": "Chipanda", "_id": 249962999, "_uuid": "a0dc444e-bf7e-4000-a025-554d22c6b0ca", "_submission_time": "2023-07-03T12:30:02", "_status": "submitted_via_web", "__version__": "vPgp5uDTCetJnwuiTjaEws", "_index": 51}},
{"type": "Feature", "geometry": {"type": "Point", "coordinates": [35.0496554, -15.8655305, 1154.6939372047782]}, "properties": {"Data collector name": "Francis Chimbalanga", "Health facility name": "Limbe", "Village name": "Che Mtambo", "_id": 249963003, "_uuid": "cc103639-74ab-414a-ad1c-0d6b17faf99f", "_submission_time": "2023-07-03T12:30:02", "_status": "submitted_via_web", "__version__": "vPgp5uDTCetJnwuiTjaEws", "_index": 52}},
{"type": "Feature", "geometry": {"type": "Point", "coordinates": [35.0566491, -15.856389, 1147.2874769540504]}, "properties": {"Data collector name": "Francis Chimbalanga", "Health facility name": "Limbe", "Village name": "Likotima", "_id": 249963004, "_uuid": "f1f01dcc-b0f7-4aa3-90f6-0b0face3a4d8", "_submission_time": "2023-07-03T12:30:03", "_status": "submitted_via_web", "__version__": "vPgp5uDTCetJnwuiTjaEws", "_index": 53}},
{"type": "Feature", "geometry": {"type": "Point", "coordinates": [35.044741, -15.8281606, 1154.015024298802]}, "properties": {"Data collector name": "Francis Chimbalanga", "Health facility name": "Limbe", "Village name": "Federation ", "_id": 249963006, "_uuid": "5eb4f7a5-2cba-4886-a5a7-bb611b58d840", "_submission_time": "2023-07-03T12:30:03", "_status": "submitted_via_web", "__version__": "vPgp5uDTCetJnwuiTjaEws", "_index": 54}},
{"type": "Feature", "geometry": {"type": "Point", "coordinates": [35.0393264, -15.8318851, 1190.4125446006656]}, "properties": {"Data collector name": "Francis Chimbalanga", "Health facility name": "Limbe", "Village name": "Kapeni", "_id": 249963008, "_uuid": "afa7610e-fb65-44af-a40d-40473493f638", "_submission_time": "2023-07-03T12:30:04", "_status": "submitted_via_web", "__version__": "vPgp5uDTCetJnwuiTjaEws", "_index": 55}},
{"type": "Feature", "geometry": {"type": "Point", "coordinates": [35.0677179, -15.8146382, 1167.955810546875]}, "properties": {"Data collector name": "Faith Chimphondah", "Health facility name": "Bangwe", "Village name": "Railways", "_id": 249982595, "_uuid": "5e680aa6-b748-489f-8365-f26cf3df9526", "_submission_time": "2023-07-03T13:44:10", "_status": "submitted_via_web", "__version__": "vPgp5uDTCetJnwuiTjaEws", "_index": 56}},
{"type": "Feature", "geometry": {"type": "Point", "coordinates": [35.0715974, -15.822797, 1142.571533203125]}, "properties": {"Data collector name": "Faith Chimphondah", "Health facility name": "Bangwe", "Village name": "Mtopwa", "_id": 249982597, "_uuid": "323a5191-11c6-468a-b19e-991c7be64929", "_submission_time": "2023-07-03T13:44:10", "_status": "submitted_via_web", "__version__": "vPgp5uDTCetJnwuiTjaEws", "_index": 57}},
{"type": "Feature", "geometry": {"type": "Point", "coordinates": [35.0753211, -15.8265089, 1120.2872314453125]}, "properties": {"Data collector name": "Faith Chimphondah", "Health facility name": "Bangwe", "Village name": "ETG", "_id": 249982598, "_uuid": "cc8284bf-b1c7-4ab9-8ad4-463c7da278bc", "_submission_time": "2023-07-03T13:44:11", "_status": "submitted_via_web", "__version__": "vPgp5uDTCetJnwuiTjaEws", "_index": 58}},
{"type": "Feature", "geometry": {"type": "Point", "coordinates": [35.0778833, -15.8294276, 1110.1192626953125]}, "properties": {"Data collector name": "Faith Chimphondah", "Health facility name": "Bangwe", "Village name": "Nthandizi ", "_id": 249982603, "_uuid": "cae4311a-9353-4663-9f35-a71106f66351", "_submission_time": "2023-07-03T13:44:11", "_status": "submitted_via_web", "__version__": "vPgp5uDTCetJnwuiTjaEws", "_index": 59}},
{"type": "Feature", "geometry": {"type": "Point", "coordinates": [35.0740205, -15.8294153, 1120.982177734375]}, "properties": {"Data collector name": "Faith Chimphondah", "Health facility name": "Bangwe", "Village name": "Hajira", "_id": 249982607, "_uuid": "4caa1e1c-a9d8-49e8-bb1d-7c047761ceda", "_submission_time": "2023-07-03T13:44:12", "_status": "submitted_via_web", "__version__": "vPgp5uDTCetJnwuiTjaEws", "_index": 60}},
{"type": "Feature", "geometry": {"type": "Point", "coordinates": [35.076077, -15.8344508, 1133.305908203125]}, "properties": {"Data collector name": "Faith Chimphondah", "Health facility name": "Bangwe", "Village name": "BCA Hills ", "_id": 249982611, "_uuid": "bb90d25f-ba72-4210-bcc9-191f4063006d", "_submission_time": "2023-07-03T13:44:12", "_status": "submitted_via_web", "__version__": "vPgp5uDTCetJnwuiTjaEws", "_index": 61}},
{"type": "Feature", "geometry": {"type": "Point", "coordinates": [35.0789047, -15.8457168, 1072.254150390625]}, "properties": {"Data collector name": "Faith Chimphondah", "Health facility name": "Bangwe", "Village name": "BCA Village (Nachamba)", "_id": 249982613, "_uuid": "6dffec60-6000-4ae4-af52-576abd55c3ab", "_submission_time": "2023-07-03T13:44:13", "_status": "submitted_via_web", "__version__": "vPgp5uDTCetJnwuiTjaEws", "_index": 62}},
{"type": "Feature", "geometry": {"type": "Point", "coordinates": [35.0304494, -15.8526666, 1060.0]}, "properties": {"Data collector name": "Prince Matope", "Health facility name": "Sochematernity", "Village name": "MLESO", "_id": 249982617, "_uuid": "d06761ba-4db5-4dfd-92c2-096531456d8d", "_submission_time": "2023-07-03T13:44:13", "_status": "submitted_via_web", "__version__": "vPgp5uDTCetJnwuiTjaEws", "_index": 63}},
{"type": "Feature", "geometry": {"type": "Point", "coordinates": [35.0861919, -15.8437824, 1106.8564453125]}, "properties": {"Data collector name": "Faith Chimphondah", "Health facility name": "Bangwe", "Village name": "Namiyango", "_id": 249982618, "_uuid": "0392156b-746d-414a-85c2-349fd591a295", "_submission_time": "2023-07-03T13:44:13", "_status": "submitted_via_web", "__version__": "vPgp5uDTCetJnwuiTjaEws", "_index": 64}},
{"type": "Feature", "geometry": {"type": "Point", "coordinates": [35.0888606, -15.8415203, 1117.9993896484375]}, "properties": {"Data collector name": "Faith Chimphondah", "Health facility name": "Bangwe", "Village name": "Naizi", "_id": 249982621, "_uuid": "7edbda39-bdb4-45bc-9e77-23fe56648734", "_submission_time": "2023-07-03T13:44:14", "_status": "submitted_via_web", "__version__": "vPgp5uDTCetJnwuiTjaEws", "_index": 65}},
{"type": "Feature", "geometry": {"type": "Point", "coordinates": [35.0896661, -15.8447252, 1110.623779296875]}, "properties": {"Data collector name": "Faith Chimphondah", "Health facility name": "Bangwe", "Village name": "Mondiwa", "_id": 249982622, "_uuid": "1fe6f4a8-48f6-4fa3-9557-ca8ef4a6b2fb", "_submission_time": "2023-07-03T13:44:14", "_status": "submitted_via_web", "__version__": "vPgp5uDTCetJnwuiTjaEws", "_index": 66}},
{"type": "Feature", "geometry": {"type": "Point", "coordinates": [35.0136593, -15.8492889, 1135.0]}, "properties": {"Data collector name": "Prince Matope", "Health facility name": "Sochematernity", "Village name": "Phambala", "_id": 249982624, "_uuid": "d41b4876-a4d7-4889-bd82-39482627de2a", "_submission_time": "2023-07-03T13:44:14", "_status": "submitted_via_web", "__version__": "vPgp5uDTCetJnwuiTjaEws", "_index": 67}},
{"type": "Feature", "geometry": {"type": "Point", "coordinates": [35.095846, -15.8407463, 1059.61572265625]}, "properties": {"Data collector name": "Faith Chimphondah", "Health facility name": "Bangwe", "Village name": "Masala", "_id": 249982625, "_uuid": "3b7564e3-1ed1-437e-bb5e-7a14ba8da9c8", "_submission_time": "2023-07-03T13:44:15", "_status": "submitted_via_web", "__version__": "vPgp5uDTCetJnwuiTjaEws", "_index": 68}},
{"type": "Feature", "geometry": {"type": "Point", "coordinates": [35.0977963, -15.850626, 1041.85400390625]}, "properties": {"Data collector name": "Faith Chimphondah", "Health facility name": "Bangwe", "Village name": "Namalu", "_id": 249982629, "_uuid": "d8dfdc86-60a3-4525-baae-16ae44c570e2", "_submission_time": "2023-07-03T13:44:15", "_status": "submitted_via_web", "__version__": "vPgp5uDTCetJnwuiTjaEws", "_index": 69}},
{"type": "Feature", "geometry": {"type": "Point", "coordinates": [35.008235, -15.836003, 1061.0]}, "properties": {"Data collector name": "Prince Matope", "Health facility name": "Sochematernity", "Village name": "CHILOBWE", "_id": 249982631, "_uuid": "a0da7c75-85e8-494c-a20f-d2611f58169b", "_submission_time": "2023-07-03T13:44:16", "_status": "submitted_via_web", "__version__": "vPgp5uDTCetJnwuiTjaEws", "_index": 70}},
{"type": "Feature", "geometry": {"type": "Point", "coordinates": [35.1061791, -15.8353832, 1064.7000732421875]}, "properties": {"Data collector name": "Faith Chimphondah", "Health facility name": "Bangwe", "Village name": "Chikunda", "_id": 249982632, "_uuid": "cf74355d-7739-4de5-99c1-a651deafb168", "_submission_time": "2023-07-03T13:44:16", "_status": "submitted_via_web", "__version__": "vPgp5uDTCetJnwuiTjaEws", "_index": 71}},
{"type": "Feature", "geometry": {"type": "Point", "coordinates": [35.095495, -15.8336306, 1090.6812744140625]}, "properties": {"Data collector name": "Faith Chimphondah", "Health facility name": "Bangwe", "Village name": "Green Malata ", "_id": 249982634, "_uuid": "56823e3b-7d31-4bbd-a2b2-0905cb622c6d", "_submission_time": "2023-07-03T13:44:16", "_status": "submitted_via_web", "__version__": "vPgp5uDTCetJnwuiTjaEws", "_index": 72}},
{"type": "Feature", "geometry": {"type": "Point", "coordinates": [35.0126664, -15.8631856, 1141.0]}, "properties": {"Data collector name": "Prince Matope", "Health facility name": "Sochematernity", "Village name": "MAKANYANA", "_id": 249982636, "_uuid": "340b93ec-bf7b-4184-bc8f-0b5939136b91", "_submission_time": "2023-07-03T13:44:17", "_status": "submitted_via_web", "__version__": "vPgp5uDTCetJnwuiTjaEws", "_index": 73}},
{"type": "Feature", "geometry": {"type": "Point", "coordinates": [35.0923523, -15.8328028, 1107.11376953125]}, "properties": {"Data collector name": "Faith Chimphondah", "Health facility name": "Bangwe", "Village name": "Green Valley ", "_id": 249982638, "_uuid": "cf8ebea7-b43a-4eb7-948c-2d438bb8d078", "_submission_time": "2023-07-03T13:44:17", "_status": "submitted_via_web", "__version__": "vPgp5uDTCetJnwuiTjaEws", "_index": 74}},
{"type": "Feature", "geometry": {"type": "Point", "coordinates": [35.0053141, -15.8794416, 1056.0]}, "properties": {"Data collector name": "Prince Matope", "Health facility name": "Sochematernity", "Village name": "MALEKWA", "_id": 249982640, "_uuid": "a8fe59a4-f800-4239-a921-b3b96cadb3df", "_submission_time": "2023-07-03T13:44:17", "_status": "submitted_via_web", "__version__": "vPgp5uDTCetJnwuiTjaEws", "_index": 75}},
{"type": "Feature", "geometry": {"type": "Point", "coordinates": [35.089344, -15.8330271, 1115.87353515625]}, "properties": {"Data collector name": "Faith Chimphondah", "Health facility name": "Bangwe", "Village name": "Nazerene", "_id": 249982641, "_uuid": "63a39660-1de4-43b3-bfc7-4d7f1c4f1ad1", "_submission_time": "2023-07-03T13:44:17", "_status": "submitted_via_web", "__version__": "vPgp5uDTCetJnwuiTjaEws", "_index": 76}},
{"type": "Feature", "geometry": {"type": "Point", "coordinates": [35.0878318, -15.8319782, 1119.2442626953125]}, "properties": {"Data collector name": "Faith Chimphondah", "Health facility name": "Bangwe", "Village name": "Desert", "_id": 249982643, "_uuid": "98f35263-331e-4899-9120-095bee48e875", "_submission_time": "2023-07-03T13:44:18", "_status": "submitted_via_web", "__version__": "vPgp5uDTCetJnwuiTjaEws", "_index": 77}},
{"type": "Feature", "geometry": {"type": "Point", "coordinates": [35.0164189, -15.8762666, 1070.0]}, "properties": {"Data collector name": "Prince Matope", "Health facility name": "Sochematernity", "Village name": "CHIBONA", "_id": 249982644, "_uuid": "21a66a57-75fb-4fe6-a632-3672e9e627d0", "_submission_time": "2023-07-03T13:44:18", "_status": "submitted_via_web", "__version__": "vPgp5uDTCetJnwuiTjaEws", "_index": 78}},
{"type": "Feature", "geometry": {"type": "Point", "coordinates": [35.0876491, -15.8362654, 1116.4000244140625]}, "properties": {"Data collector name": "Faith Chimphondah", "Health facility name": "Bangwe", "Village name": "Weaving ", "_id": 249982649, "_uuid": "515598a1-1c4d-4323-bbf2-48eda671f813", "_submission_time": "2023-07-03T13:44:18", "_status": "submitted_via_web", "__version__": "vPgp5uDTCetJnwuiTjaEws", "_index": 79}},
{"type": "Feature", "geometry": {"type": "Point", "coordinates": [35.014395, -15.8842101, 1057.0]}, "properties": {"Data collector name": "Prince Matope", "Health facility name": "Sochematernity", "Village name": "PACHIKA", "_id": 249982650, "_uuid": "3bc98e7e-8ee6-43f8-b82e-f516e726ecd7", "_submission_time": "2023-07-03T13:44:18", "_status": "submitted_via_web", "__version__": "vPgp5uDTCetJnwuiTjaEws", "_index": 80}},
{"type": "Feature", "geometry": {"type": "Point", "coordinates": [35.0161342, -15.8918868, 999.0]}, "properties": {"Data collector name": "Prince Matope", "Health facility name": "Sochematernity", "Village name": "CHIWEWE", "_id": 249982653, "_uuid": "53bb9ef0-4756-409b-83ab-274863a0189e", "_submission_time": "2023-07-03T13:44:19", "_status": "submitted_via_web", "__version__": "vPgp5uDTCetJnwuiTjaEws", "_index": 81}},
{"type": "Feature", "geometry": {"type": "Point", "coordinates": [35.0778154, -15.8272877, 1123.89404296875]}, "properties": {"Data collector name": "Faith Chimphondah", "Health facility name": "Bangwe", "Village name": "Chilumba", "_id": 249982654, "_uuid": "2b407d5f-5a2a-44ad-ae24-984602e06ffd", "_submission_time": "2023-07-03T13:44:19", "_status": "submitted_via_web", "__version__": "vPgp5uDTCetJnwuiTjaEws", "_index": 82}},
{"type": "Feature", "geometry": {"type": "Point", "coordinates": [35.0092017, -15.8969613, 1008.0]}, "properties": {"Data collector name": "Prince Matope", "Health facility name": "Sochematernity", "Village name": "CHIKHOTA", "_id": 249982657, "_uuid": "895d3b55-fb2b-4fb5-ab65-829b89e027ce", "_submission_time": "2023-07-03T13:44:19", "_status": "submitted_via_web", "__version__": "vPgp5uDTCetJnwuiTjaEws", "_index": 83}},
{"type": "Feature", "geometry": {"type": "Point", "coordinates": [35.0749341, -15.821301, 1151.5238037109375]}, "properties": {"Data collector name": "Faith Chimphondah", "Health facility name": "Bangwe", "Village name": "Ayise", "_id": 249982658, "_uuid": "a4217008-2e78-4a1d-a538-0d4d5f8981b0", "_submission_time": "2023-07-03T13:44:19", "_status": "submitted_via_web", "__version__": "vPgp5uDTCetJnwuiTjaEws", "_index": 84}},
{"type": "Feature", "geometry": {"type": "Point", "coordinates": [35.0801452, -15.8232847, 1158.689453125]}, "properties": {"Data collector name": "Faith Chimphondah", "Health facility name": "Bangwe", "Village name": "Namatapa", "_id": 249982661, "_uuid": "3dda3f05-ddde-43da-8e20-31c3e472e3cf", "_submission_time": "2023-07-03T13:44:20", "_status": "submitted_via_web", "__version__": "vPgp5uDTCetJnwuiTjaEws", "_index": 85}},
{"type": "Feature", "geometry": {"type": "Point", "coordinates": [35.0114269, -15.9033898, 965.0]}, "properties": {"Data collector name": "Prince Matope", "Health facility name": "Sochematernity", "Village name": "CHIMALA", "_id": 249982662, "_uuid": "b49abf7f-0c30-4009-b6be-a33ce7245c65", "_submission_time": "2023-07-03T13:44:20", "_status": "submitted_via_web", "__version__": "vPgp5uDTCetJnwuiTjaEws", "_index": 86}},
{"type": "Feature", "geometry": {"type": "Point", "coordinates": [35.0546828, -15.799841, 1137.0999755859375]}, "properties": {"Data collector name": "Faith Chimphondah", "Health facility name": "Bangwe", "Village name": "Mudi ", "_id": 249982664, "_uuid": "6114b05c-99bf-4ff3-acb1-5b18091d0fa3", "_submission_time": "2023-07-03T13:44:20", "_status": "submitted_via_web", "__version__": "vPgp5uDTCetJnwuiTjaEws", "_index": 87}},
{"type": "Feature", "geometry": {"type": "Point", "coordinates": [35.0250335, -15.8691614, 1107.0]}, "properties": {"Data collector name": "Prince Matope", "Health facility name": "Sochematernity", "Village name": "SIMON MTAMBO", "_id": 249982665, "_uuid": "598010f8-fcc2-410c-99d4-497884b17e83", "_submission_time": "2023-07-03T13:44:20", "_status": "submitted_via_web", "__version__": "vPgp5uDTCetJnwuiTjaEws", "_index": 88}},
{"type": "Feature", "geometry": {"type": "Point", "coordinates": [35.0359495, -15.8620703, 1078.0]}, "properties": {"Data collector name": "Prince Matope", "Health facility name": "Sochematernity", "Village name": "MATALALA", "_id": 249982669, "_uuid": "853e67d4-b1dc-4fb2-8e30-61e95b45cdf8", "_submission_time": "2023-07-03T13:44:21", "_status": "submitted_via_web", "__version__": "vPgp5uDTCetJnwuiTjaEws", "_index": 89}},
{"type": "Feature", "geometry": {"type": "Point", "coordinates": [35.0381063, -15.8574022, 1072.0]}, "properties": {"Data collector name": "Prince Matope", "Health facility name": "Sochematernity", "Village name": "TIDZIWANE", "_id": 249982672, "_uuid": "5e1bb582-bc81-4d7a-8a0b-5634495bb735", "_submission_time": "2023-07-03T13:44:22", "_status": "submitted_via_web", "__version__": "vPgp5uDTCetJnwuiTjaEws", "_index": 90}},
{"type": "Feature", "geometry": {"type": "Point", "coordinates": [35.0406138, -15.8545396, 1095.0]}, "properties": {"Data collector name": "Prince Matope", "Health facility name": "Sochematernity", "Village name": "KUMWEMBE", "_id": 249982673, "_uuid": "6d0eb542-cc6e-4b8b-8753-8914934e9f4e", "_submission_time": "2023-07-03T13:44:22", "_status": "submitted_via_web", "__version__": "vPgp5uDTCetJnwuiTjaEws", "_index": 91}},
{"type": "Feature", "geometry": {"type": "Point", "coordinates": [35.0361994, -15.8501596, 1085.0]}, "properties": {"Data collector name": "Prince Matope", "Health facility name": "Sochematernity", "Village name": "CHEKIMU", "_id": 249982675, "_uuid": "b07923b3-ed69-4335-b649-34499460dc33", "_submission_time": "2023-07-03T13:44:23", "_status": "submitted_via_web", "__version__": "vPgp5uDTCetJnwuiTjaEws", "_index": 92}},
{"type": "Feature", "geometry": {"type": "Point", "coordinates": [35.0442899, -15.8430672, 1138.0]}, "properties": {"Data collector name": "Prince Matope", "Health facility name": "Sochematernity", "Village name": "MISESA", "_id": 249982679, "_uuid": "dc2d8718-e437-4177-ac9e-965193b468fb", "_submission_time": "2023-07-03T13:44:23", "_status": "submitted_via_web", "__version__": "vPgp5uDTCetJnwuiTjaEws", "_index": 93}},
{"type": "Feature", "geometry": {"type": "Point", "coordinates": [35.034575, -15.835348, 1180.0]}, "properties": {"Data collector name": "Prince Matope", "Health facility name": "Sochematernity", "Village name": "SOCHE QUARRY", "_id": 249982681, "_uuid": "418e4ec5-d5e8-48e1-be94-7d2e95b555a9", "_submission_time": "2023-07-03T13:44:24", "_status": "submitted_via_web", "__version__": "vPgp5uDTCetJnwuiTjaEws", "_index": 94}},
{"type": "Feature", "geometry": {"type": "Point", "coordinates": [35.0372494, -15.8354497, 1183.0]}, "properties": {"Data collector name": "Prince Matope", "Health facility name": "Sochematernity", "Village name": "MISESA", "_id": 249982683, "_uuid": "23c9d23f-83c5-4102-8c3b-7a94c524eb32", "_submission_time": "2023-07-03T13:44:24", "_status": "submitted_via_web", "__version__": "vPgp5uDTCetJnwuiTjaEws", "_index": 95}},
{"type": "Feature", "geometry": {"type": "Point", "coordinates": [35.0420683, -15.8488196, 1107.0]}, "properties": {"Data collector name": "Prince Matope", "Health facility name": "Sochematernity", "Village name": "BULEYA", "_id": 249982685, "_uuid": "8db61f9a-370c-4aac-b13d-9fb413b53efb", "_submission_time": "2023-07-03T13:44:25", "_status": "submitted_via_web", "__version__": "vPgp5uDTCetJnwuiTjaEws", "_index": 96}},
{"type": "Feature", "geometry": {"type": "Point", "coordinates": [35.0501348, -15.8426988, 1088.0]}, "properties": {"Data collector name": "Prince Matope", "Health facility name": "Sochematernity", "Village name": "MACHESO", "_id": 249982688, "_uuid": "f82c7ad2-81f0-46b7-ba5d-4e945c290563", "_submission_time": "2023-07-03T13:44:26", "_status": "submitted_via_web", "__version__": "vPgp5uDTCetJnwuiTjaEws", "_index": 97}},
{"type": "Feature", "geometry": {"type": "Point", "coordinates": [35.0540955, -15.835933, 1109.0]}, "properties": {"Data collector name": "Prince Matope", "Health facility name": "Limbe", "Village name": "CHIWEMBE", "_id": 249982692, "_uuid": "4f8269a0-00f7-46cf-8c41-08611776c017", "_submission_time": "2023-07-03T13:44:26", "_status": "submitted_via_web", "__version__": "vPgp5uDTCetJnwuiTjaEws", "_index": 98}},
{"type": "Feature", "geometry": {"type": "Point", "coordinates": [35.1003226873225, -15.802630079149639, 1100.3112296815962]}, "properties": {"Data collector name": "Owen Tsoka", "Health facility name": "Bangwe", "Village name": "nkhukuteni", "_id": 249985807, "_uuid": "29ef5d44-c97a-4957-bb14-7b7cb6263147", "_submission_time": "2023-07-03T13:56:06", "_status": "submitted_via_web", "__version__": "vPgp5uDTCetJnwuiTjaEws", "_index": 99}},
{"type": "Feature", "geometry": {"type": "Point", "coordinates": [35.11333349128907, -15.789745594023687, 1085.1755968714133]}, "properties": {"Data collector name": "Owen Tsoka", "Health facility name": "Chilomoni", "Village name": "Mzedi", "_id": 249985812, "_uuid": "2ef12d4b-88b5-44e1-92ca-5431c9f5a22e", "_submission_time": "2023-07-03T13:56:06", "_status": "submitted_via_web", "__version__": "vPgp5uDTCetJnwuiTjaEws", "_index": 100}},
{"type": "Feature", "geometry": {"type": "Point", "coordinates": [35.11704745076288, -15.775425952997846, 1066.0077827610075]}, "properties": {"Data collector name": "Owen Tsoka", "Health facility name": "Bangwe", "Village name": "Maloya", "_id": 249985817, "_uuid": "2272e452-66b2-4cc2-8ece-a2c880eb494b", "_submission_time": "2023-07-03T13:56:07", "_status": "submitted_via_web", "__version__": "vPgp5uDTCetJnwuiTjaEws", "_index": 101}},
{"type": "Feature", "geometry": {"type": "Point", "coordinates": [35.106668465321256, -15.78308828491929, 1110.769924448803]}, "properties": {"Data collector name": "Owen Tsoka", "Health facility name": "Bangwe", "Village name": "Sadiki", "_id": 249985820, "_uuid": "2b7794fb-798f-4696-a595-59212f41de7a", "_submission_time": "2023-07-03T13:56:07", "_status": "submitted_via_web", "__version__": "vPgp5uDTCetJnwuiTjaEws", "_index": 102}},
{"type": "Feature", "geometry": {"type": "Point", "coordinates": [35.10849014449121, -15.794355118978094, 1070.5806030947715]}, "properties": {"Data collector name": "Owen Tsoka", "Health facility name": "Bangwe", "Village name": "St  Patricks", "_id": 249985823, "_uuid": "7d9d4c10-e916-4908-9538-3c6e2b01e31f", "_submission_time": "2023-07-03T13:56:08", "_status": "submitted_via_web", "__version__": "vPgp5uDTCetJnwuiTjaEws", "_index": 103}},
{"type": "Feature", "geometry": {"type": "Point", "coordinates": [35.1149374023143, -15.783742391966195, 1060.5736416820437]}, "properties": {"Data collector name": "Owen Tsoka", "Health facility name": "Bangwe", "Village name": "Kabango", "_id": 249985836, "_uuid": "e9a113fb-5d51-4b75-bd09-cd9882ed4701", "_submission_time": "2023-07-03T13:56:09", "_status": "submitted_via_web", "__version__": "vPgp5uDTCetJnwuiTjaEws", "_index": 104}},
{"type": "Feature", "geometry": {"type": "Point", "coordinates": [35.09611401812221, -15.802277841004555, 1116.371800092049]}, "properties": {"Data collector name": "Owen Tsoka", "Health facility name": "Bangwe", "Village name": "Kalakani", "_id": 249985838, "_uuid": "efb41eda-05ec-4da5-98d2-f8115addfd52", "_submission_time": "2023-07-03T13:56:10", "_status": "submitted_via_web", "__version__": "vPgp5uDTCetJnwuiTjaEws", "_index": 105}},
{"type": "Feature", "geometry": {"type": "Point", "coordinates": [35.10152611606904, -15.799884592184238, 1088.7154214652255]}, "properties": {"Data collector name": "Owen Tsoka", "Health facility name": "Bangwe", "Village name": "Sakaza", "_id": 249985842, "_uuid": "68788823-a166-422a-9aad-4c48ecacf7d6", "_submission_time": "2023-07-03T13:56:10", "_status": "submitted_via_web", "__version__": "vPgp5uDTCetJnwuiTjaEws", "_index": 106}},
{"type": "Feature", "geometry": {"type": "Point", "coordinates": [35.09830522843026, -15.807323760675347, 1095.3067842964083]}, "properties": {"Data collector name": "Owen Tsoka", "Health facility name": "Bangwe", "Village name": "Mpingwe", "_id": 249985845, "_uuid": "245da326-75b5-4954-9edf-289bdb732827", "_submission_time": "2023-07-03T13:56:11", "_status": "submitted_via_web", "__version__": "vPgp5uDTCetJnwuiTjaEws", "_index": 107}},
{"type": "Feature", "geometry": {"type": "Point", "coordinates": [35.10211752425126, -15.810938744971176, 1102.8375003458932]}, "properties": {"Data collector name": "Owen Tsoka", "Health facility name": "Bangwe", "Village name": "Zambia ", "_id": 249985848, "_uuid": "4830828b-d242-46f8-bb60-c48aeb2354cd", "_submission_time": "2023-07-03T13:56:11", "_status": "submitted_via_web", "__version__": "vPgp5uDTCetJnwuiTjaEws", "_index": 108}},
{"type": "Feature", "geometry": {"type": "Point", "coordinates": [35.10224910094364, -15.808621006940392, 1086.9469143226743]}, "properties": {"Data collector name": "Owen Tsoka", "Health facility name": "Bangwe", "Village name": "number 9", "_id": 249985851, "_uuid": "678d6393-719a-4f4d-ae4e-463644c8c88b", "_submission_time": "2023-07-03T13:56:12", "_status": "submitted_via_web", "__version__": "vPgp5uDTCetJnwuiTjaEws", "_index": 109}},
{"type": "Feature", "geometry": {"type": "Point", "coordinates": [35.1089877587522, -15.807876352153013, 1087.5531510766596]}, "properties": {"Data collector name": "Owen Tsoka", "Health facility name": "Bangwe", "Village name": "Butawo", "_id": 249985854, "_uuid": "430f606d-b738-4848-afde-d4cdbac9bf5d", "_submission_time": "2023-07-03T13:56:13", "_status": "submitted_via_web", "__version__": "vPgp5uDTCetJnwuiTjaEws", "_index": 110}},
{"type": "Feature", "geometry": {"type": "Point", "coordinates": [35.11476992126119, -15.811731746874761, 1046.5393954999745]}, "properties": {"Data collector name": "Owen Tsoka", "Health facility name": "Bangwe", "Village name": "Kambalame", "_id": 249985858, "_uuid": "c0947d45-32e0-4ef9-b899-01bab622c45d", "_submission_time": "2023-07-03T13:56:13", "_status": "submitted_via_web", "__version__": "vPgp5uDTCetJnwuiTjaEws", "_index": 111}},
{"type": "Feature", "geometry": {"type": "Point", "coordinates": [35.10965909858153, -15.808337872759024, 1091.8896256973967]}, "properties": {"Data collector name": "Owen Tsoka", "Health facility name": "Bangwe", "Village name": "Mtendere", "_id": 249985860, "_uuid": "99f7bfd4-5fcc-4e82-b088-ddd4917867a3", "_submission_time": "2023-07-03T13:56:14", "_status": "submitted_via_web", "__version__": "vPgp5uDTCetJnwuiTjaEws", "_index": 112}},
{"type": "Feature", "geometry": {"type": "Point", "coordinates": [35.09855581652837, -15.80664533317403, 1094.0478933900595]}, "properties": {"Data collector name": "Owen Tsoka", "Health facility name": "Bangwe", "Village name": "Number 7", "_id": 249985866, "_uuid": "4d971448-98f9-4866-bfe7-bdbdc47bceee", "_submission_time": "2023-07-03T13:56:14", "_status": "submitted_via_web", "__version__": "vPgp5uDTCetJnwuiTjaEws", "_index": 113}},
{"type": "Feature", "geometry": {"type": "Point", "coordinates": [35.097284953390684, -15.806880929109088, 1106.6869099820033]}, "properties": {"Data collector name": "Owen Tsoka", "Health facility name": "Bangwe", "Village name": "Number 6", "_id": 249985868, "_uuid": "fcc60d62-c2ee-4b96-a83d-b3fde3513dce", "_submission_time": "2023-07-03T13:56:15", "_status": "submitted_via_web", "__version__": "vPgp5uDTCetJnwuiTjaEws", "_index": 114}},
{"type": "Feature", "geometry": {"type": "Point", "coordinates": [35.09535959220531, -15.8086341452253, 1128.5382391782477]}, "properties": {"Data collector name": "Owen Tsoka", "Health facility name": "Bangwe", "Village name": "Number 5", "_id": 249985870, "_uuid": "418ec279-07bc-4724-ba2c-bb7e791cb732", "_submission_time": "2023-07-03T13:56:15", "_status": "submitted_via_web", "__version__": "vPgp5uDTCetJnwuiTjaEws", "_index": 115}},
{"type": "Feature", "geometry": {"type": "Point", "coordinates": [35.09451711026343, -15.811034666104566, 1126.4928166419268]}, "properties": {"Data collector name": "Owen Tsoka", "Health facility name": "Bangwe", "Village name": "Number 4", "_id": 249985874, "_uuid": "658b73ea-e55c-4afa-a1b4-3234cf1fb82c", "_submission_time": "2023-07-03T13:56:16", "_status": "submitted_via_web", "__version__": "vPgp5uDTCetJnwuiTjaEws", "_index": 116}},
{"type": "Feature", "geometry": {"type": "Point", "coordinates": [35.092864339851026, -15.81322660878519, 1132.686440215446]}, "properties": {"Data collector name": "Owen Tsoka", "Health facility name": "Bangwe", "Village name": "Number 3", "_id": 249985877, "_uuid": "bfb1a676-5aa6-4d69-a3e1-90fa8b19e400", "_submission_time": "2023-07-03T13:56:16", "_status": "submitted_via_web", "__version__": "vPgp5uDTCetJnwuiTjaEws", "_index": 117}},
{"type": "Feature", "geometry": {"type": "Point", "coordinates": [35.091384350561555, -15.814677047919147, 1156.12678628508]}, "properties": {"Data collector name": "Owen Tsoka", "Health facility name": "Bangwe", "Village name": "Number 2", "_id": 249985882, "_uuid": "c780f884-8154-452e-9371-da95370f5fd0", "_submission_time": "2023-07-03T13:56:17", "_status": "submitted_via_web", "__version__": "vPgp5uDTCetJnwuiTjaEws", "_index": 118}},
{"type": "Feature", "geometry": {"type": "Point", "coordinates": [35.092342065524875, -15.81584789312127, 1140.282582768239]}, "properties": {"Data collector name": "Owen Tsoka", "Health facility name": "Bangwe", "Village name": "Fukafuka", "_id": 249985884, "_uuid": "b58ca678-5e48-4a90-8c76-770d5e1bbdc5", "_submission_time": "2023-07-03T13:56:17", "_status": "submitted_via_web", "__version__": "vPgp5uDTCetJnwuiTjaEws", "_index": 119}},
{"type": "Feature", "geometry": {"type": "Point", "coordinates": [35.09149123563476, -15.816192801644423, 1143.5625692270696]}, "properties": {"Data collector name": "Owen Tsoka", "Health facility name": "Bangwe", "Village name": "Kataya", "_id": 249985886, "_uuid": "54b4f03a-96b7-437f-8fc7-2d83c2b1c92d", "_submission_time": "2023-07-03T13:56:18", "_status": "submitted_via_web", "__version__": "vPgp5uDTCetJnwuiTjaEws", "_index": 120}},
{"type": "Feature", "geometry": {"type": "Point", "coordinates": [35.08977980853654, -15.817788036362995, 1169.761673127301]}, "properties": {"Data collector name": "Owen Tsoka", "Health facility name": "Bangwe", "Village name": "Number 1", "_id": 249985889, "_uuid": "559e596d-db90-46d1-83fb-1e9cfb842097", "_submission_time": "2023-07-03T13:56:18", "_status": "submitted_via_web", "__version__": "vPgp5uDTCetJnwuiTjaEws", "_index": 121}},
{"type": "Feature", "geometry": {"type": "Point", "coordinates": [35.090783850287536, -15.820697406509531, 1183.3889698656276]}, "properties": {"Data collector name": "Owen Tsoka", "Health facility name": "Bangwe", "Village name": "Derunde", "_id": 249985892, "_uuid": "c64fb7cb-e71c-427f-8fa7-e5a01821fa3e", "_submission_time": "2023-07-03T13:56:19", "_status": "submitted_via_web", "__version__": "vPgp5uDTCetJnwuiTjaEws", "_index": 122}},
{"type": "Feature", "geometry": {"type": "Point", "coordinates": [35.09036848279774, -15.819000408593428, 1198.992566574365]}, "properties": {"Data collector name": "Owen Tsoka", "Health facility name": "Bangwe", "Village name": "Salvation ", "_id": 249985894, "_uuid": "40550d57-2aaa-4429-bf23-87c1f7866bfd", "_submission_time": "2023-07-03T13:56:19", "_status": "submitted_via_web", "__version__": "vPgp5uDTCetJnwuiTjaEws", "_index": 123}},
{"type": "Feature", "geometry": {"type": "Point", "coordinates": [35.08857402813685, -15.823529416888558, 1133.5268544778228]}, "properties": {"Data collector name": "Owen Tsoka", "Health facility name": "Bangwe", "Village name": "Mvula", "_id": 249985896, "_uuid": "71d9c3bd-cb89-43c6-9542-ec49c0793f50", "_submission_time": "2023-07-03T13:56:20", "_status": "submitted_via_web", "__version__": "vPgp5uDTCetJnwuiTjaEws", "_index": 124}},
{"type": "Feature", "geometry": {"type": "Point", "coordinates": [35.08829751540564, -15.82937005461897, 1122.0128639489412]}, "properties": {"Data collector name": "Owen Tsoka", "Health facility name": "Bangwe", "Village name": "Bisani", "_id": 249985901, "_uuid": "e93d46ca-cd7d-4e61-ad31-44c69107370d", "_submission_time": "2023-07-03T13:56:20", "_status": "submitted_via_web", "__version__": "vPgp5uDTCetJnwuiTjaEws", "_index": 125}},
{"type": "Feature", "geometry": {"type": "Point", "coordinates": [35.08918684716628, -15.830798045758314, 1141.83130179625]}, "properties": {"Data collector name": "Owen Tsoka", "Health facility name": "Bangwe", "Village name": "Wisiki", "_id": 249985904, "_uuid": "f2db1dd4-ecb0-4b06-9841-eff59d642260", "_submission_time": "2023-07-03T13:56:21", "_status": "submitted_via_web", "__version__": "vPgp5uDTCetJnwuiTjaEws", "_index": 126}},
{"type": "Feature", "geometry": {"type": "Point", "coordinates": [35.086302514203936, -15.828923897162657, 1101.0045745493844]}, "properties": {"Data collector name": "Owen Tsoka", "Health facility name": "Bangwe", "Village name": "Thundu", "_id": 249985908, "_uuid": "30170848-ce93-42b0-8e7f-c760c8e8a192", "_submission_time": "2023-07-03T13:56:22", "_status": "submitted_via_web", "__version__": "vPgp5uDTCetJnwuiTjaEws", "_index": 127}},
{"type": "Feature", "geometry": {"type": "Point", "coordinates": [35.06914597, -15.72902222, 1003.7100219727]}, "properties": {"Data collector name": "Kingsley Kajanga", "Health facility name": "South lunzu", "Village name": "Area3", "_id": 250177248, "_uuid": "20189839-f797-4710-88fb-40c25c5952e4", "_submission_time": "2023-07-04T10:39:04", "_status": "submitted_via_web", "__version__": "vPgp5uDTCetJnwuiTjaEws", "_index": 128}},
{"type": "Feature", "geometry": {"type": "Point", "coordinates": [35.05316711, -15.72957149, 1000.803486824]}, "properties": {"Data collector name": "Kingsley Kajanga", "Health facility name": "South lunzu", "Village name": "Ching\u2019ombe", "_id": 250177252, "_uuid": "488c4e47-7e73-45bd-8891-5f58f04bf960", "_submission_time": "2023-07-04T10:39:04", "_status": "submitted_via_web", "__version__": "vPgp5uDTCetJnwuiTjaEws", "_index": 129}},
{"type": "Feature", "geometry": {"type": "Point", "coordinates": [35.06807202, -15.73605168, 1001.6115271971]}, "properties": {"Data collector name": "Kingsley Kajanga", "Health facility name": "South lunzu", "Village name": "Area6", "_id": 250177253, "_uuid": "858e3292-25f9-4371-ad7a-931095c64967", "_submission_time": "2023-07-04T10:39:04", "_status": "submitted_via_web", "__version__": "vPgp5uDTCetJnwuiTjaEws", "_index": 130}},
{"type": "Feature", "geometry": {"type": "Point", "coordinates": [35.069146, -15.72902195, 1003.954123497]}, "properties": {"Data collector name": "Kingsley Kajanga", "Health facility name": "South lunzu", "Village name": "Area5", "_id": 250177254, "_uuid": "b33dbb70-2da5-413d-842b-6f8162a9585e", "_submission_time": "2023-07-04T10:39:04", "_status": "submitted_via_web", "__version__": "vPgp5uDTCetJnwuiTjaEws", "_index": 131}},
{"type": "Feature", "geometry": {"type": "Point", "coordinates": [35.05316711, -15.72957149, 1000.803486824]}, "properties": {"Data collector name": "Kingsley Kajanga", "Health facility name": "South lunzu", "Village name": "Area12", "_id": 250177256, "_uuid": "a24dab3e-73ac-41bd-8c06-9dbdbc6980ae", "_submission_time": "2023-07-04T10:39:04", "_status": "submitted_via_web", "__version__": "vPgp5uDTCetJnwuiTjaEws", "_index": 132}},
{"type": "Feature", "geometry": {"type": "Point", "coordinates": [35.06807202, -15.73605168, 1001.6115271971]}, "properties": {"Data collector name": "Kingsley Kajanga", "Health facility name": "South lunzu", "Village name": "Area8", "_id": 250177257, "_uuid": "581de7e9-4329-439d-b389-bb360d1f1dfd", "_submission_time": "2023-07-04T10:39:04", "_status": "submitted_via_web", "__version__": "vPgp5uDTCetJnwuiTjaEws", "_index": 133}},
{"type": "Feature", "geometry": {"type": "Point", "coordinates": [35.06807202, -15.73605168, 1001.6115271971]}, "properties": {"Data collector name": "Kingsley Kajanga", "Health facility name": "South lunzu", "Village name": "Chikapa", "_id": 250177258, "_uuid": "aed8933b-8354-4b97-8ee0-0c5bc01769ee", "_submission_time": "2023-07-04T10:39:05", "_status": "submitted_via_web", "__version__": "vPgp5uDTCetJnwuiTjaEws", "_index": 134}},
{"type": "Feature", "geometry": {"type": "Point", "coordinates": [35.06807202, -15.73605168, 1001.6115271971]}, "properties": {"Data collector name": "Kingsley Kajanga", "Health facility name": "South lunzu", "Village name": "Area14", "_id": 250177259, "_uuid": "5c8195a3-8415-4416-ae43-d714bdf3c34a", "_submission_time": "2023-07-04T10:39:05", "_status": "submitted_via_web", "__version__": "vPgp5uDTCetJnwuiTjaEws", "_index": 135}},
{"type": "Feature", "geometry": {"type": "Point", "coordinates": [35.06807202, -15.73605168, 1001.6115271971]}, "properties": {"Data collector name": "Kingsley Kajanga", "Health facility name": "South lunzu", "Village name": "Area9", "_id": 250177260, "_uuid": "98ef14b2-781d-4bd6-a0fa-45191b4eb226", "_submission_time": "2023-07-04T10:39:05", "_status": "submitted_via_web", "__version__": "vPgp5uDTCetJnwuiTjaEws", "_index": 136}},
{"type": "Feature", "geometry": {"type": "Point", "coordinates": [35.06807202, -15.73605168, 1001.6115271971]}, "properties": {"Data collector name": "Kingsley Kajanga", "Health facility name": "South lunzu", "Village name": "Area7", "_id": 250177261, "_uuid": "b0b1cdcc-1449-4fa3-92f8-30aa6c8d5354", "_submission_time": "2023-07-04T10:39:05", "_status": "submitted_via_web", "__version__": "vPgp5uDTCetJnwuiTjaEws", "_index": 137}},
{"type": "Feature", "geometry": {"type": "Point", "coordinates": [35.07224476, -15.7604548, 1072.2147660531]}, "properties": {"Data collector name": "Kingsley Kajanga", "Health facility name": "South lunzu", "Village name": "Mkhama", "_id": 250177263, "_uuid": "b0527cb0-d371-4b9c-b771-b6a170c1bad0", "_submission_time": "2023-07-04T10:39:05", "_status": "submitted_via_web", "__version__": "vPgp5uDTCetJnwuiTjaEws", "_index": 138}},
{"type": "Feature", "geometry": {"type": "Point", "coordinates": [35.07224476, -15.7604548, 1072.2147660531]}, "properties": {"Data collector name": "Kingsley Kajanga", "Health facility name": "South lunzu", "Village name": "Manjombe", "_id": 250177264, "_uuid": "cbdee34c-54f8-40d6-a790-c2ee737798d8", "_submission_time": "2023-07-04T10:39:05", "_status": "submitted_via_web", "__version__": "vPgp5uDTCetJnwuiTjaEws", "_index": 139}},
{"type": "Feature", "geometry": {"type": "Point", "coordinates": [35.07224476, -15.7604548, 1072.2147660531]}, "properties": {"Data collector name": "Kingsley Kajanga", "Health facility name": "South lunzu", "Village name": "Misewu6", "_id": 250177267, "_uuid": "9391beb2-1b96-4e5a-a361-0f28fa3922b2", "_submission_time": "2023-07-04T10:39:05", "_status": "submitted_via_web", "__version__": "vPgp5uDTCetJnwuiTjaEws", "_index": 140}},
{"type": "Feature", "geometry": {"type": "Point", "coordinates": [35.07236693, -15.78162003, 1072.2147216797]}, "properties": {"Data collector name": "Kingsley Kajanga", "Health facility name": "South lunzu", "Village name": "Makhetha", "_id": 250177269, "_uuid": "737ba77f-a512-45f4-932c-7c3ac05a0a55", "_submission_time": "2023-07-04T10:39:06", "_status": "submitted_via_web", "__version__": "vPgp5uDTCetJnwuiTjaEws", "_index": 141}},
{"type": "Feature", "geometry": {"type": "Point", "coordinates": [35.07236693, -15.78162003, 1072.2147216797]}, "properties": {"Data collector name": "Kingsley Kajanga", "Health facility name": "South lunzu", "Village name": "Madukira", "_id": 250177270, "_uuid": "c1298ddf-8163-434a-a4e1-cbf7e37efc2d", "_submission_time": "2023-07-04T10:39:06", "_status": "submitted_via_web", "__version__": "vPgp5uDTCetJnwuiTjaEws", "_index": 142}},
{"type": "Feature", "geometry": {"type": "Point", "coordinates": [35.0709109, -15.74639795, 1043.7196760178]}, "properties": {"Data collector name": "Kingsley Kajanga", "Health facility name": "South lunzu", "Village name": "Ndilekeni", "_id": 250177271, "_uuid": "b15d2664-db4d-4224-a9a8-d415f21eff5f", "_submission_time": "2023-07-04T10:39:06", "_status": "submitted_via_web", "__version__": "vPgp5uDTCetJnwuiTjaEws", "_index": 143}},
{"type": "Feature", "geometry": {"type": "Point", "coordinates": [35.07461472, -15.76630268, 1164.9499511719]}, "properties": {"Data collector name": "Kingsley Kajanga", "Health facility name": "South lunzu", "Village name": "Nathoka", "_id": 250177272, "_uuid": "c0b26b7e-e1d9-4afd-bf2b-a33d576bd9c4", "_submission_time": "2023-07-04T10:39:06", "_status": "submitted_via_web", "__version__": "vPgp5uDTCetJnwuiTjaEws", "_index": 144}},
{"type": "Feature", "geometry": {"type": "Point", "coordinates": [35.0709109, -15.74639795, 1043.7196760178]}, "properties": {"Data collector name": "Kingsley Kajanga", "Health facility name": "South lunzu", "Village name": "Underson", "_id": 250177273, "_uuid": "4593d4ba-5474-47f0-8c8c-b8fc37d9cbc3", "_submission_time": "2023-07-04T10:39:06", "_status": "submitted_via_web", "__version__": "vPgp5uDTCetJnwuiTjaEws", "_index": 145}},
{"type": "Feature", "geometry": {"type": "Point", "coordinates": [35.0709109, -15.74639795, 1043.7196760178]}, "properties": {"Data collector name": "Kingsley Kajanga", "Health facility name": "South lunzu", "Village name": "Area4", "_id": 250177274, "_uuid": "730efd94-c992-4c5f-8172-78b17cd177e9", "_submission_time": "2023-07-04T10:39:06", "_status": "submitted_via_web", "__version__": "vPgp5uDTCetJnwuiTjaEws", "_index": 146}},
{"type": "Feature", "geometry": {"type": "Point", "coordinates": [35.0709109, -15.74639795, 1043.7196760178]}, "properties": {"Data collector name": "Kingsley Kajanga", "Health facility name": "South lunzu", "Village name": "Chimera", "_id": 250177278, "_uuid": "f40df6c9-5539-40ce-b5e6-cc8e4645e4dd", "_submission_time": "2023-07-04T10:39:06", "_status": "submitted_via_web", "__version__": "vPgp5uDTCetJnwuiTjaEws", "_index": 147}},
{"type": "Feature", "geometry": {"type": "Point", "coordinates": [35.0709109, -15.74639795, 1043.7196760178]}, "properties": {"Data collector name": "Kingsley Kajanga", "Health facility name": "South lunzu", "Village name": "Chimwaza", "_id": 250177279, "_uuid": "89af44af-dba2-403f-82c3-9e03d06451a8", "_submission_time": "2023-07-04T10:39:06", "_status": "submitted_via_web", "__version__": "vPgp5uDTCetJnwuiTjaEws", "_index": 148}},
{"type": "Feature", "geometry": {"type": "Point", "coordinates": [35.05461942, -15.72705529, 1036.5642309189]}, "properties": {"Data collector name": "Kingsley Kajanga", "Health facility name": "South lunzu", "Village name": "Area2", "_id": 250177280, "_uuid": "46dcfaae-c7b7-48d7-93e9-e69126b6d10a", "_submission_time": "2023-07-04T10:39:06", "_status": "submitted_via_web", "__version__": "vPgp5uDTCetJnwuiTjaEws", "_index": 149}},
{"type": "Feature", "geometry": {"type": "Point", "coordinates": [35.0411336, -15.7320579, 916.633243358694]}, "properties": {"Data collector name": "Francis Chimbalanga", "Health facility name": "South lunzu", "Village name": "Area 1", "_id": 250222534, "_uuid": "0bfd7b3d-71f6-4770-a4da-b1aaefa056b4", "_submission_time": "2023-07-04T13:23:51", "_status": "submitted_via_web", "__version__": "vPgp5uDTCetJnwuiTjaEws", "_index": 150}},
{"type": "Feature", "geometry": {"type": "Point", "coordinates": [35.081784, -15.7356879, 1009.6831779414788]}, "properties": {"Data collector name": "Francis Chimbalanga", "Health facility name": "Makhetha", "Village name": "Lewis", "_id": 250222537, "_uuid": "61307a2a-fbc1-4c2e-8bd2-75b790957a51", "_submission_time": "2023-07-04T13:23:51", "_status": "submitted_via_web", "__version__": "vPgp5uDTCetJnwuiTjaEws", "_index": 151}},
{"type": "Feature", "geometry": {"type": "Point", "coordinates": [35.0809218, -15.7435246, 1034.8811916820705]}, "properties": {"Data collector name": "Francis Chimbalanga", "Health facility name": "Makhetha", "Village name": "Chikapa", "_id": 250222540, "_uuid": "065bdc1a-0c9f-4985-9204-2ae0500d933b", "_submission_time": "2023-07-04T13:23:51", "_status": "submitted_via_web", "__version__": "vPgp5uDTCetJnwuiTjaEws", "_index": 152}},
{"type": "Feature", "geometry": {"type": "Point", "coordinates": [35.0792902, -15.7382736, 1018.4648357415572]}, "properties": {"Data collector name": "Francis Chimbalanga", "Health facility name": "Makhetha", "Village name": "Mpoto", "_id": 250222543, "_uuid": "5254948d-1ab6-467c-8821-9dfbf3ef0510", "_submission_time": "2023-07-04T13:23:52", "_status": "submitted_via_web", "__version__": "vPgp5uDTCetJnwuiTjaEws", "_index": 153}},
{"type": "Feature", "geometry": {"type": "Point", "coordinates": [35.0781009, -15.749029, 1047.0112255439162]}, "properties": {"Data collector name": "Francis Chimbalanga", "Health facility name": "Makhetha", "Village name": "Chilembwe", "_id": 250222544, "_uuid": "ecf03845-d122-46c7-ac7c-379f550c98c4", "_submission_time": "2023-07-04T13:23:52", "_status": "submitted_via_web", "__version__": "vPgp5uDTCetJnwuiTjaEws", "_index": 154}},
{"type": "Feature", "geometry": {"type": "Point", "coordinates": [35.0844297, -15.7473275, 1030.2783735003322]}, "properties": {"Data collector name": "Francis Chimbalanga", "Health facility name": "Makhetha", "Village name": "Chisonga", "_id": 250222546, "_uuid": "9587fa05-cc46-4108-aea4-a712edc37ab5", "_submission_time": "2023-07-04T13:23:53", "_status": "submitted_via_web", "__version__": "vPgp5uDTCetJnwuiTjaEws", "_index": 155}},
{"type": "Feature", "geometry": {"type": "Point", "coordinates": [35.0780424, -15.7551243, 1080.56530947797]}, "properties": {"Data collector name": "Francis Chimbalanga", "Health facility name": "Makhetha", "Village name": "Nanthoka", "_id": 250222548, "_uuid": "51b25faa-9ad5-498b-99f9-cf45e3efb85b", "_submission_time": "2023-07-04T13:23:53", "_status": "submitted_via_web", "__version__": "vPgp5uDTCetJnwuiTjaEws", "_index": 156}},
{"type": "Feature", "geometry": {"type": "Point", "coordinates": [35.0746636, -15.7670478, 1101.8151195198298]}, "properties": {"Data collector name": "Francis Chimbalanga", "Health facility name": "Makhetha", "Village name": "Khama", "_id": 250222551, "_uuid": "3a05db7a-a84c-4bf5-964a-5f1841b91fa1", "_submission_time": "2023-07-04T13:23:53", "_status": "submitted_via_web", "__version__": "vPgp5uDTCetJnwuiTjaEws", "_index": 157}},
{"type": "Feature", "geometry": {"type": "Point", "coordinates": [35.0719802, -15.7676792, 1126.2442056192085]}, "properties": {"Data collector name": "Francis Chimbalanga", "Health facility name": "Makhetha", "Village name": "Mantchombe", "_id": 250222553, "_uuid": "43621014-30d7-4be1-842c-367aa24bb7ce", "_submission_time": "2023-07-04T13:23:54", "_status": "submitted_via_web", "__version__": "vPgp5uDTCetJnwuiTjaEws", "_index": 158}},
{"type": "Feature", "geometry": {"type": "Point", "coordinates": [35.0694351, -15.7729169, 1146.993282836862]}, "properties": {"Data collector name": "Francis Chimbalanga", "Health facility name": "Makhetha", "Village name": "Ndilekeni", "_id": 250222554, "_uuid": "8ec4b973-248c-4b12-a600-498020444ff5", "_submission_time": "2023-07-04T13:23:54", "_status": "submitted_via_web", "__version__": "vPgp5uDTCetJnwuiTjaEws", "_index": 159}},
{"type": "Feature", "geometry": {"type": "Point", "coordinates": [35.0684807, -15.7860867, 1164.5976309981197]}, "properties": {"Data collector name": "Francis Chimbalanga", "Health facility name": "Makhetha", "Village name": "Chinikule 1, Near Stance School", "_id": 250222556, "_uuid": "3ed2b2de-ad5d-40a9-8b72-75cc8b287a26", "_submission_time": "2023-07-04T13:23:55", "_status": "submitted_via_web", "__version__": "vPgp5uDTCetJnwuiTjaEws", "_index": 160}},
{"type": "Feature", "geometry": {"type": "Point", "coordinates": [35.075685, -15.7782468, 1119.5725354366004]}, "properties": {"Data collector name": "Francis Chimbalanga", "Health facility name": "Makhetha", "Village name": "Madulira", "_id": 250222557, "_uuid": "5bc34f04-3762-4cc6-8623-b54387e812d6", "_submission_time": "2023-07-04T13:23:55", "_status": "submitted_via_web", "__version__": "vPgp5uDTCetJnwuiTjaEws", "_index": 161}},
{"type": "Feature", "geometry": {"type": "Point", "coordinates": [35.0744297, -15.7738768, 1101.5999755859375]}, "properties": {"Data collector name": "Francis Chimbalanga", "Health facility name": "Makhetha", "Village name": "Mkwate", "_id": 250222558, "_uuid": "459d7576-70ab-4255-a169-6af269ef659a", "_submission_time": "2023-07-04T13:23:56", "_status": "submitted_via_web", "__version__": "vPgp5uDTCetJnwuiTjaEws", "_index": 162}},
{"type": "Feature", "geometry": {"type": "Point", "coordinates": [35.0724143, -15.7730706, 1101.5999755859375]}, "properties": {"Data collector name": "Francis Chimbalanga", "Health facility name": "Makhetha", "Village name": "Chinupule 1", "_id": 250222561, "_uuid": "d630362d-76db-42c5-b6bb-99e0fddbf70c", "_submission_time": "2023-07-04T13:23:56", "_status": "submitted_via_web", "__version__": "vPgp5uDTCetJnwuiTjaEws", "_index": 163}},
{"type": "Feature", "geometry": {"type": "Point", "coordinates": [35.0719016, -15.765464, 1115.5491783940734]}, "properties": {"Data collector name": "Francis Chimbalanga", "Health facility name": "Makhetha", "Village name": "Matenje", "_id": 250222562, "_uuid": "0ada3e42-f690-4c3f-b012-018527927d31", "_submission_time": "2023-07-04T13:23:56", "_status": "submitted_via_web", "__version__": "vPgp5uDTCetJnwuiTjaEws", "_index": 164}},
{"type": "Feature", "geometry": {"type": "Point", "coordinates": [35.0727198, -15.7599269, 1094.2901257127523]}, "properties": {"Data collector name": "Francis Chimbalanga", "Health facility name": "Makhetha", "Village name": "Area 9", "_id": 250222564, "_uuid": "9c1d3e7d-481e-422b-a61d-3e03b18e420d", "_submission_time": "2023-07-04T13:23:57", "_status": "submitted_via_web", "__version__": "vPgp5uDTCetJnwuiTjaEws", "_index": 165}},
{"type": "Feature", "geometry": {"type": "Point", "coordinates": [35.0763602, -15.7612683, 1099.509151974693]}, "properties": {"Data collector name": "Francis Chimbalanga", "Health facility name": "Makhetha", "Village name": "Makala", "_id": 250222566, "_uuid": "faa87c43-e959-46a0-9a7b-363ef88d2f5e", "_submission_time": "2023-07-04T13:23:57", "_status": "submitted_via_web", "__version__": "vPgp5uDTCetJnwuiTjaEws", "_index": 166}},
{"type": "Feature", "geometry": {"type": "Point", "coordinates": [35.0769337, -15.7623242, 1102.9600449083373]}, "properties": {"Data collector name": "Francis Chimbalanga", "Health facility name": "Makhetha", "Village name": "Mulenga", "_id": 250222568, "_uuid": "f88c7dea-8b9c-4581-b69f-4c321529fa73", "_submission_time": "2023-07-04T13:23:58", "_status": "submitted_via_web", "__version__": "vPgp5uDTCetJnwuiTjaEws", "_index": 167}},
{"type": "Feature", "geometry": {"type": "Point", "coordinates": [35.0736381, -15.7665115, 1114.2143807765096]}, "properties": {"Data collector name": "Francis Chimbalanga", "Health facility name": "Makhetha", "Village name": "Nkung'unda", "_id": 250222572, "_uuid": "e2f1f33c-a291-44e0-bb79-f4cf1035e0d0", "_submission_time": "2023-07-04T13:23:58", "_status": "submitted_via_web", "__version__": "vPgp5uDTCetJnwuiTjaEws", "_index": 168}},
{"type": "Feature", "geometry": {"type": "Point", "coordinates": [35.0701417, -15.7845557, 1146.3965023644269]}, "properties": {"Data collector name": "Francis Chimbalanga", "Health facility name": "Makhetha", "Village name": "Maila", "_id": 250222575, "_uuid": "5b20e308-e8ee-4128-998d-3d37c89c0616", "_submission_time": "2023-07-04T13:23:59", "_status": "submitted_via_web", "__version__": "vPgp5uDTCetJnwuiTjaEws", "_index": 169}},
{"type": "Feature", "geometry": {"type": "Point", "coordinates": [35.0672508, -15.7884246, 1171.2091015633196]}, "properties": {"Data collector name": "Francis Chimbalanga", "Health facility name": "Makhetha", "Village name": "Chinupule, Near Makhetha", "_id": 250222578, "_uuid": "c40dd94e-edd5-4f3f-acf8-d3a7a990e9bd", "_submission_time": "2023-07-04T13:23:59", "_status": "submitted_via_web", "__version__": "vPgp5uDTCetJnwuiTjaEws", "_index": 170}},
{"type": "Feature", "geometry": {"type": "Point", "coordinates": [35.0108025, -15.7952114, 1038.7967529296875]}, "properties": {"Data collector name": "Faith Chimphondah", "Health facility name": "Ndirande", "Village name": "Mandala", "_id": 250231455, "_uuid": "f747bc77-f675-488d-b501-9a251e445763", "_submission_time": "2023-07-04T13:55:52", "_status": "submitted_via_web", "__version__": "vPgp5uDTCetJnwuiTjaEws", "_index": 171}},
{"type": "Feature", "geometry": {"type": "Point", "coordinates": [35.0392385, -15.8009506, 1107.4000244140625]}, "properties": {"Data collector name": "Faith Chimphondah", "Health facility name": "Ndirande", "Village name": "Chichiri", "_id": 250231459, "_uuid": "4664ffcb-31ec-4e10-98e9-8bea7f180c57", "_submission_time": "2023-07-04T13:55:53", "_status": "submitted_via_web", "__version__": "vPgp5uDTCetJnwuiTjaEws", "_index": 172}},
{"type": "Feature", "geometry": {"type": "Point", "coordinates": [35.0293144, -15.7902148, 1078.3155517578125]}, "properties": {"Data collector name": "Faith Chimphondah", "Health facility name": "Ndirande", "Village name": "Makata", "_id": 250231461, "_uuid": "396e26d2-6640-4ba7-a561-36d0ba7b920c", "_submission_time": "2023-07-04T13:55:53", "_status": "submitted_via_web", "__version__": "vPgp5uDTCetJnwuiTjaEws", "_index": 173}},
{"type": "Feature", "geometry": {"type": "Point", "coordinates": [35.0312895, -15.7840636, 1083.0166015625]}, "properties": {"Data collector name": "Faith Chimphondah", "Health facility name": "Ndirande", "Village name": "BSS", "_id": 250231465, "_uuid": "565cbae0-ce26-415d-8d52-2c2db4cc4bca", "_submission_time": "2023-07-04T13:55:54", "_status": "submitted_via_web", "__version__": "vPgp5uDTCetJnwuiTjaEws", "_index": 174}},
{"type": "Feature", "geometry": {"type": "Point", "coordinates": [35.033183, -15.7844741, 1104.509033203125]}, "properties": {"Data collector name": "Faith Chimphondah", "Health facility name": "Ndirande", "Village name": "Newlines", "_id": 250231470, "_uuid": "6bb4af61-5e94-4362-be5c-533fbda03555", "_submission_time": "2023-07-04T13:55:54", "_status": "submitted_via_web", "__version__": "vPgp5uDTCetJnwuiTjaEws", "_index": 175}},
{"type": "Feature", "geometry": {"type": "Point", "coordinates": [35.0365531, -15.7859417, 1119.1064453125]}, "properties": {"Data collector name": "Faith Chimphondah", "Health facility name": "Ndirande", "Village name": "Ma flats", "_id": 250231475, "_uuid": "154bdc0a-3dad-4e08-a375-87d657892f34", "_submission_time": "2023-07-04T13:55:55", "_status": "submitted_via_web", "__version__": "vPgp5uDTCetJnwuiTjaEws", "_index": 176}},
{"type": "Feature", "geometry": {"type": "Point", "coordinates": [35.0468368, -15.775826, 1133.1201171875]}, "properties": {"Data collector name": "Faith Chimphondah", "Health facility name": "Ndirande", "Village name": "Safarawo", "_id": 250231478, "_uuid": "49dc52bd-1013-46b8-bced-2833eeab80bd", "_submission_time": "2023-07-04T13:55:55", "_status": "submitted_via_web", "__version__": "vPgp5uDTCetJnwuiTjaEws", "_index": 177}},
{"type": "Feature", "geometry": {"type": "Point", "coordinates": [35.042558, -15.7631906, 1122.1927490234375]}, "properties": {"Data collector name": "Faith Chimphondah", "Health facility name": "Ndirande", "Village name": "Ndilande Hil", "_id": 250231484, "_uuid": "e2b642fa-9aa3-4744-a672-d9c689615ec4", "_submission_time": "2023-07-04T13:55:56", "_status": "submitted_via_web", "__version__": "vPgp5uDTCetJnwuiTjaEws", "_index": 178}},
{"type": "Feature", "geometry": {"type": "Point", "coordinates": [35.0408304, -15.7649861, 1140.756591796875]}, "properties": {"Data collector name": "Faith Chimphondah", "Health facility name": "Ndirande", "Village name": "Newlands", "_id": 250231489, "_uuid": "e278926e-53d6-49df-9dde-0a08a2f3dd4b", "_submission_time": "2023-07-04T13:55:56", "_status": "submitted_via_web", "__version__": "vPgp5uDTCetJnwuiTjaEws", "_index": 179}},
{"type": "Feature", "geometry": {"type": "Point", "coordinates": [35.0371655, -15.7686005, 1113.383056640625]}, "properties": {"Data collector name": "Faith Chimphondah", "Health facility name": "Ndirande", "Village name": "Chinseu", "_id": 250231492, "_uuid": "320bad63-13e6-4b67-af12-01156582b342", "_submission_time": "2023-07-04T13:55:57", "_status": "submitted_via_web", "__version__": "vPgp5uDTCetJnwuiTjaEws", "_index": 180}},
{"type": "Feature", "geometry": {"type": "Point", "coordinates": [35.0312518, -15.7762577, 1073.77490234375]}, "properties": {"Data collector name": "Faith Chimphondah", "Health facility name": "Ndirande", "Village name": "Chinseu behind tarven", "_id": 250231493, "_uuid": "cc2e69b2-1cf7-4954-a619-3018443f3b58", "_submission_time": "2023-07-04T13:55:57", "_status": "submitted_via_web", "__version__": "vPgp5uDTCetJnwuiTjaEws", "_index": 181}},
{"type": "Feature", "geometry": {"type": "Point", "coordinates": [35.0167835, -15.7788641, 1030.936279296875]}, "properties": {"Data collector name": "Faith Chimphondah", "Health facility name": "Ndirande", "Village name": "Nyambadwe", "_id": 250231496, "_uuid": "bd494879-4f68-4860-b920-2e57cc40b8bd", "_submission_time": "2023-07-04T13:55:57", "_status": "submitted_via_web", "__version__": "vPgp5uDTCetJnwuiTjaEws", "_index": 182}},
{"type": "Feature", "geometry": {"type": "Point", "coordinates": [35.019888, -15.7621061, 1009.1448974609375]}, "properties": {"Data collector name": "Faith Chimphondah", "Health facility name": "Ndirande", "Village name": "Magalasi", "_id": 250231503, "_uuid": "75e122e9-113e-442b-9bed-9f5ae620e2dc", "_submission_time": "2023-07-04T13:55:58", "_status": "submitted_via_web", "__version__": "vPgp5uDTCetJnwuiTjaEws", "_index": 183}},
{"type": "Feature", "geometry": {"type": "Point", "coordinates": [35.0129995, -15.7543316, 970.9404296875]}, "properties": {"Data collector name": "Faith Chimphondah", "Health facility name": "Ndirande", "Village name": "Chapima", "_id": 250231504, "_uuid": "36c483fb-1fa3-424f-a8f8-9f766c9cd516", "_submission_time": "2023-07-04T13:55:58", "_status": "submitted_via_web", "__version__": "vPgp5uDTCetJnwuiTjaEws", "_index": 184}},
{"type": "Feature", "geometry": {"type": "Point", "coordinates": [35.0278035, -15.7808356, 1064.825927734375]}, "properties": {"Data collector name": "Faith Chimphondah", "Health facility name": "Ndirande", "Village name": "Goliyo", "_id": 250231510, "_uuid": "acb48b50-139d-4abd-b4ed-5adea37425a1", "_submission_time": "2023-07-04T13:55:59", "_status": "submitted_via_web", "__version__": "vPgp5uDTCetJnwuiTjaEws", "_index": 185}},
{"type": "Feature", "geometry": {"type": "Point", "coordinates": [35.0400953, -15.7762386, 1098.723876953125]}, "properties": {"Data collector name": "Faith Chimphondah", "Health facility name": "Ndirande", "Village name": "Zioni", "_id": 250231514, "_uuid": "71211aa9-0a56-435e-8c25-ca2cf17e1fbe", "_submission_time": "2023-07-04T13:55:59", "_status": "submitted_via_web", "__version__": "vPgp5uDTCetJnwuiTjaEws", "_index": 186}},
{"type": "Feature", "geometry": {"type": "Point", "coordinates": [35.0412756, -15.7798121, 1132.874267578125]}, "properties": {"Data collector name": "Faith Chimphondah", "Health facility name": "Ndirande", "Village name": "Chakana", "_id": 250231519, "_uuid": "2dfb2668-4f1c-4b1c-8e13-3c91d47dbf9a", "_submission_time": "2023-07-04T13:56:00", "_status": "submitted_via_web", "__version__": "vPgp5uDTCetJnwuiTjaEws", "_index": 187}},
{"type": "Feature", "geometry": {"type": "Point", "coordinates": [35.0403148, -15.7787918, 1119.404052734375]}, "properties": {"Data collector name": "Faith Chimphondah", "Health facility name": "Ndirande", "Village name": "Mtandika", "_id": 250231525, "_uuid": "1934f6f2-7c52-43ef-a248-f1b56831b2ef", "_submission_time": "2023-07-04T13:56:00", "_status": "submitted_via_web", "__version__": "vPgp5uDTCetJnwuiTjaEws", "_index": 188}},
{"type": "Feature", "geometry": {"type": "Point", "coordinates": [35.018737, -15.7389048, 921.1571044921875]}, "properties": {"Data collector name": "Faith Chimphondah", "Health facility name": "Chirimba", "Village name": "Sonke", "_id": 250231530, "_uuid": "e5725c07-621d-40cb-883a-a4a12e1cd3fd", "_submission_time": "2023-07-04T13:56:00", "_status": "submitted_via_web", "__version__": "vPgp5uDTCetJnwuiTjaEws", "_index": 189}},
{"type": "Feature", "geometry": {"type": "Point", "coordinates": [35.0155327, -15.7340649, 899.073486328125]}, "properties": {"Data collector name": "Faith Chimphondah", "Health facility name": "Chirimba", "Village name": "Mwachande", "_id": 250231533, "_uuid": "0eb2f306-feef-418a-a1c6-d7a38f8d16e5", "_submission_time": "2023-07-04T13:56:01", "_status": "submitted_via_web", "__version__": "vPgp5uDTCetJnwuiTjaEws", "_index": 190}},
{"type": "Feature", "geometry": {"type": "Point", "coordinates": [35.02893563292436, -15.764628073061763, 1043.3819475248456]}, "properties": {"Data collector name": "Owen Tsoka", "Health facility name": "Ndirande", "Village name": "Magalasi", "_id": 250231799, "_uuid": "e7098657-81b4-46b5-9658-b359e95d8b79", "_submission_time": "2023-07-04T13:57:14", "_status": "submitted_via_web", "__version__": "vPgp5uDTCetJnwuiTjaEws", "_index": 191}},
{"type": "Feature", "geometry": {"type": "Point", "coordinates": [35.031802808990975, -15.770896178801145, 1072.19509441033]}, "properties": {"Data collector name": "Owen Tsoka", "Health facility name": "Ndirande", "Village name": "Zambia ", "_id": 250231802, "_uuid": "1949c68b-457a-4d18-bfdd-453653fc7b77", "_submission_time": "2023-07-04T13:57:14", "_status": "submitted_via_web", "__version__": "vPgp5uDTCetJnwuiTjaEws", "_index": 192}},
{"type": "Feature", "geometry": {"type": "Point", "coordinates": [35.04011273560772, -15.766014832826908, 1122.2519210428]}, "properties": {"Data collector name": "Owen Tsoka", "Health facility name": "Ndirande", "Village name": "Malabada", "_id": 250231804, "_uuid": "638971e0-729f-45b3-bc01-f7734c61ac9c", "_submission_time": "2023-07-04T13:57:15", "_status": "submitted_via_web", "__version__": "vPgp5uDTCetJnwuiTjaEws", "_index": 193}},
{"type": "Feature", "geometry": {"type": "Point", "coordinates": [35.04048618333315, -15.759193881532203, 1164.4789238274097]}, "properties": {"Data collector name": "Owen Tsoka", "Health facility name": "Ndirande", "Village name": "Green Malata", "_id": 250231807, "_uuid": "470b53e3-88f8-42b6-96f2-e80e4f286823", "_submission_time": "2023-07-04T13:57:15", "_status": "submitted_via_web", "__version__": "vPgp5uDTCetJnwuiTjaEws", "_index": 194}},
{"type": "Feature", "geometry": {"type": "Point", "coordinates": [35.04118581723035, -15.764802065873452, 1132.4333419241011]}, "properties": {"Data collector name": "Owen Tsoka", "Health facility name": "Ndirande", "Village name": "Malasia", "_id": 250231811, "_uuid": "6ecaa18a-b3a4-45fa-8eff-7e07ff6abb53", "_submission_time": "2023-07-04T13:57:16", "_status": "submitted_via_web", "__version__": "vPgp5uDTCetJnwuiTjaEws", "_index": 195}},
{"type": "Feature", "geometry": {"type": "Point", "coordinates": [35.03655649581055, -15.773672289040638, 1112.078432323411]}, "properties": {"Data collector name": "Owen Tsoka", "Health facility name": "Ndirande", "Village name": "George Village ", "_id": 250231815, "_uuid": "1b1a6867-9153-4c64-9795-b0b0abf74ca4", "_submission_time": "2023-07-04T13:57:17", "_status": "submitted_via_web", "__version__": "vPgp5uDTCetJnwuiTjaEws", "_index": 196}},
{"type": "Feature", "geometry": {"type": "Point", "coordinates": [35.042872178788606, -15.773934382758858, 1106.406943038106]}, "properties": {"Data collector name": "Owen Tsoka", "Health facility name": "Ndirande", "Village name": "Baghdad", "_id": 250231817, "_uuid": "0756632c-158d-4f9c-a6a1-ca74a62c75ca", "_submission_time": "2023-07-04T13:57:17", "_status": "submitted_via_web", "__version__": "vPgp5uDTCetJnwuiTjaEws", "_index": 197}},
{"type": "Feature", "geometry": {"type": "Point", "coordinates": [35.05104795289058, -15.774431046387841, 1155.2132975533605]}, "properties": {"Data collector name": "Owen Tsoka", "Health facility name": "Ndirande", "Village name": "Matope ", "_id": 250231819, "_uuid": "088a848f-6a56-47cd-bf92-1c1df3900296", "_submission_time": "2023-07-04T13:57:18", "_status": "submitted_via_web", "__version__": "vPgp5uDTCetJnwuiTjaEws", "_index": 198}},
{"type": "Feature", "geometry": {"type": "Point", "coordinates": [35.04567847204273, -15.775828496079386, 1144.8356052823365]}, "properties": {"Data collector name": "Owen Tsoka", "Health facility name": "Ndirande", "Village name": "Matope Plot", "_id": 250231821, "_uuid": "d4963e31-7d48-459a-b2f6-7855fdf29a0b", "_submission_time": "2023-07-04T13:57:19", "_status": "submitted_via_web", "__version__": "vPgp5uDTCetJnwuiTjaEws", "_index": 199}},
{"type": "Feature", "geometry": {"type": "Point", "coordinates": [35.033189146889335, -15.762838424262464, 1045.6481803255156]}, "properties": {"Data collector name": "Owen Tsoka", "Health facility name": "Ndirande", "Village name": "Majiga", "_id": 250231823, "_uuid": "dcf31394-1c92-40b6-96cf-b2b8abbbac8d", "_submission_time": "2023-07-04T13:57:19", "_status": "submitted_via_web", "__version__": "vPgp5uDTCetJnwuiTjaEws", "_index": 200}},
{"type": "Feature", "geometry": {"type": "Point", "coordinates": [35.03376418847738, -15.759609487652401, 1021.1994704473764]}, "properties": {"Data collector name": "Owen Tsoka", "Health facility name": "Ndirande", "Village name": "Baghdad 1", "_id": 250231827, "_uuid": "646870d5-1f8b-4cc3-bdd9-df943d755584", "_submission_time": "2023-07-04T13:57:19", "_status": "submitted_via_web", "__version__": "vPgp5uDTCetJnwuiTjaEws", "_index": 201}},
{"type": "Feature", "geometry": {"type": "Point", "coordinates": [35.036645533871905, -15.776979158794054, 1097.0328110046685]}, "properties": {"Data collector name": "Owen Tsoka", "Health facility name": "Ndirande", "Village name": "Market", "_id": 250231829, "_uuid": "d604ab1e-b2e2-4a02-a3a3-42d0841486b4", "_submission_time": "2023-07-04T13:57:20", "_status": "submitted_via_web", "__version__": "vPgp5uDTCetJnwuiTjaEws", "_index": 202}},
{"type": "Feature", "geometry": {"type": "Point", "coordinates": [35.03625431108667, -15.76996886821242, 1112.9637475693598]}, "properties": {"Data collector name": "Owen Tsoka", "Health facility name": "Ndirande", "Village name": "RC Church ", "_id": 250231833, "_uuid": "e10faf49-2eef-4870-bdfc-22f0ff2b8333", "_submission_time": "2023-07-04T13:57:21", "_status": "submitted_via_web", "__version__": "vPgp5uDTCetJnwuiTjaEws", "_index": 203}},
{"type": "Feature", "geometry": {"type": "Point", "coordinates": [35.03476620763422, -15.769298549052596, 1106.9391372259706]}, "properties": {"Data collector name": "Owen Tsoka", "Health facility name": "Ndirande", "Village name": "Satowe", "_id": 250231837, "_uuid": "26c0809e-f2a9-405b-afa8-5c2998b3223f", "_submission_time": "2023-07-04T13:57:21", "_status": "submitted_via_web", "__version__": "vPgp5uDTCetJnwuiTjaEws", "_index": 204}},
{"type": "Feature", "geometry": {"type": "Point", "coordinates": [35.03723923457739, -15.767268699149161, 1119.2277114829049]}, "properties": {"Data collector name": "Owen Tsoka", "Health facility name": "Ndirande", "Village name": "Chitsime", "_id": 250231840, "_uuid": "479bf6fe-2f5b-416e-84ad-5cf9e8a18a03", "_submission_time": "2023-07-04T13:57:22", "_status": "submitted_via_web", "__version__": "vPgp5uDTCetJnwuiTjaEws", "_index": 205}},
{"type": "Feature", "geometry": {"type": "Point", "coordinates": [35.035039424141715, -15.76411494548961, 1101.4938985332847]}, "properties": {"Data collector name": "Owen Tsoka", "Health facility name": "Ndirande", "Village name": "Gamulani", "_id": 250231843, "_uuid": "882f6ce5-04c3-4b3a-a016-31745333e98c", "_submission_time": "2023-07-04T13:57:22", "_status": "submitted_via_web", "__version__": "vPgp5uDTCetJnwuiTjaEws", "_index": 206}},
{"type": "Feature", "geometry": {"type": "Point", "coordinates": [35.03803328257914, -15.779114003813435, 1096.441714933142]}, "properties": {"Data collector name": "Owen Tsoka", "Health facility name": "Ndirande", "Village name": "Zambezi Church ", "_id": 250231846, "_uuid": "260a0e7f-280d-4d55-b14d-ee4b9958a3ae", "_submission_time": "2023-07-04T13:57:23", "_status": "submitted_via_web", "__version__": "vPgp5uDTCetJnwuiTjaEws", "_index": 207}},
{"type": "Feature", "geometry": {"type": "Point", "coordinates": [35.00959458321191, -15.742228537952702, 920.7836937960237]}, "properties": {"Data collector name": "Owen Tsoka", "Health facility name": "Chirimba", "Village name": "Suya", "_id": 250231850, "_uuid": "e950216c-e30c-471d-b559-e273acf33991", "_submission_time": "2023-07-04T13:57:23", "_status": "submitted_via_web", "__version__": "vPgp5uDTCetJnwuiTjaEws", "_index": 208}},
{"type": "Feature", "geometry": {"type": "Point", "coordinates": [35.04239599372473, -15.771213430673804, 1103.1816172320396]}, "properties": {"Data collector name": "Owen Tsoka", "Health facility name": "Ndirande", "Village name": "Mpembu", "_id": 250232068, "_uuid": "1ee873da-4f7c-488b-942b-b12715b453c8", "_submission_time": "2023-07-04T13:58:18", "_status": "submitted_via_web", "__version__": "vPgp5uDTCetJnwuiTjaEws", "_index": 209}},
{"type": "Feature", "geometry": {"type": "Point", "coordinates": [35.073734, -15.4863927, 589.0]}, "properties": {"Data collector name": "Prince Matope", "Health facility name": "Namikoko", "Village name": "MALENGA", "_id": 250447455, "_uuid": "b2d4448e-87dd-49ba-ba53-b0744d3341b2", "_submission_time": "2023-07-05T10:30:28", "_status": "submitted_via_web", "__version__": "vPgp5uDTCetJnwuiTjaEws", "_index": 210}},
{"type": "Feature", "geometry": {"type": "Point", "coordinates": [35.1048894, -15.4944442, 604.0]}, "properties": {"Data collector name": "Prince Matope", "Health facility name": "Namikoko", "Village name": "NAKHWALA", "_id": 250447458, "_uuid": "2924930e-5e9b-4e86-abba-9a7bb43e071c", "_submission_time": "2023-07-05T10:30:29", "_status": "submitted_via_web", "__version__": "vPgp5uDTCetJnwuiTjaEws", "_index": 211}},
{"type": "Feature", "geometry": {"type": "Point", "coordinates": [35.0941853, -15.4923167, 604.0]}, "properties": {"Data collector name": "Prince Matope", "Health facility name": "Namikoko", "Village name": "KUTCHILI", "_id": 250447461, "_uuid": "2ebe6f08-82f5-43e5-bbbb-a1dcfc7d6f43", "_submission_time": "2023-07-05T10:30:31", "_status": "submitted_via_web", "__version__": "vPgp5uDTCetJnwuiTjaEws", "_index": 212}},
{"type": "Feature", "geometry": {"type": "Point", "coordinates": [35.0654468, -15.5064336, 606.0]}, "properties": {"Data collector name": "Prince Matope", "Health facility name": "Namikoko", "Village name": "MALENGA B", "_id": 250447464, "_uuid": "5c60bc12-1ecb-4cfb-bcc7-3cdfe18c9fd8", "_submission_time": "2023-07-05T10:30:31", "_status": "submitted_via_web", "__version__": "vPgp5uDTCetJnwuiTjaEws", "_index": 213}},
{"type": "Feature", "geometry": {"type": "Point", "coordinates": [35.053422, -15.4939665, 550.0]}, "properties": {"Data collector name": "Prince Matope", "Health facility name": "Namikoko", "Village name": "SUMANI", "_id": 250447465, "_uuid": "8038b042-0071-4fe5-93f5-a208286bbfc8", "_submission_time": "2023-07-05T10:30:32", "_status": "submitted_via_web", "__version__": "vPgp5uDTCetJnwuiTjaEws", "_index": 214}},
{"type": "Feature", "geometry": {"type": "Point", "coordinates": [35.0580854, -15.487872, 533.0]}, "properties": {"Data collector name": "Prince Matope", "Health facility name": "Namikoko", "Village name": "GOMBE", "_id": 250447467, "_uuid": "0ef29003-2f4c-4c92-b1cb-1787d7d89153", "_submission_time": "2023-07-05T10:30:33", "_status": "submitted_via_web", "__version__": "vPgp5uDTCetJnwuiTjaEws", "_index": 215}},
{"type": "Feature", "geometry": {"type": "Point", "coordinates": [35.0485866, -15.4960887, 569.0]}, "properties": {"Data collector name": "Prince Matope", "Health facility name": "Namikoko", "Village name": "MBUNI", "_id": 250447471, "_uuid": "a8edcd2f-5d19-4563-bbe7-7173c94b5d3f", "_submission_time": "2023-07-05T10:30:34", "_status": "submitted_via_web", "__version__": "vPgp5uDTCetJnwuiTjaEws", "_index": 216}},
{"type": "Feature", "geometry": {"type": "Point", "coordinates": [35.0633696, -15.4793004, 548.0]}, "properties": {"Data collector name": "Prince Matope", "Health facility name": "Namikoko", "Village name": "CHOMBO", "_id": 250447476, "_uuid": "c63de56b-9a86-4336-b381-e82391c85a19", "_submission_time": "2023-07-05T10:30:35", "_status": "submitted_via_web", "__version__": "vPgp5uDTCetJnwuiTjaEws", "_index": 217}},
{"type": "Feature", "geometry": {"type": "Point", "coordinates": [35.0611705, -15.4615412, 536.0]}, "properties": {"Data collector name": "Prince Matope", "Health facility name": "Namikoko", "Village name": "CHIBAYA", "_id": 250447482, "_uuid": "0072438f-50bd-40c7-8dda-6777fd59af34", "_submission_time": "2023-07-05T10:30:38", "_status": "submitted_via_web", "__version__": "vPgp5uDTCetJnwuiTjaEws", "_index": 218}},
{"type": "Feature", "geometry": {"type": "Point", "coordinates": [35.0567647, -15.4732049, 537.0]}, "properties": {"Data collector name": "Prince Matope", "Health facility name": "Namikoko", "Village name": "MKUMBA B", "_id": 250447486, "_uuid": "1d346ca3-34e4-4532-afcc-77260e51d7ee", "_submission_time": "2023-07-05T10:30:39", "_status": "submitted_via_web", "__version__": "vPgp5uDTCetJnwuiTjaEws", "_index": 219}},
{"type": "Feature", "geometry": {"type": "Point", "coordinates": [35.0505909, -15.4763511, 540.0]}, "properties": {"Data collector name": "Prince Matope", "Health facility name": "Namikoko", "Village name": "MKWANDA", "_id": 250447488, "_uuid": "46a8cfcf-adab-4584-87c2-4ac860d78b61", "_submission_time": "2023-07-05T10:30:39", "_status": "submitted_via_web", "__version__": "vPgp5uDTCetJnwuiTjaEws", "_index": 220}},
{"type": "Feature", "geometry": {"type": "Point", "coordinates": [35.0403299, -15.4980577, 571.0]}, "properties": {"Data collector name": "Prince Matope", "Health facility name": "Namikoko", "Village name": "LUPUGAMA", "_id": 250447491, "_uuid": "a46ce7c5-eed7-44a2-ab51-55279aa1a606", "_submission_time": "2023-07-05T10:30:40", "_status": "submitted_via_web", "__version__": "vPgp5uDTCetJnwuiTjaEws", "_index": 221}},
{"type": "Feature", "geometry": {"type": "Point", "coordinates": [34.9977198, -15.4240622, 503.102909989655]}, "properties": {"Data collector name": "Francis Chimbalanga", "Health facility name": "Lundu", "Village name": "Chilonga Kayesa", "_id": 250499121, "_uuid": "1926211b-922b-4ab7-8950-42d57c2764e3", "_submission_time": "2023-07-05T13:31:13", "_status": "submitted_via_web", "__version__": "vPgp5uDTCetJnwuiTjaEws", "_index": 222}},
{"type": "Feature", "geometry": {"type": "Point", "coordinates": [34.9795114, -15.4358222, 503.26627382915467]}, "properties": {"Data collector name": "Francis Chimbalanga", "Health facility name": "Lundu", "Village name": "Chiwaya", "_id": 250499176, "_uuid": "9de7e893-5469-46db-a961-8fc16279a4d8", "_submission_time": "2023-07-05T13:31:21", "_status": "submitted_via_web", "__version__": "vPgp5uDTCetJnwuiTjaEws", "_index": 223}},
{"type": "Feature", "geometry": {"type": "Point", "coordinates": [34.9941921, -15.4440935, 509.28926395252347]}, "properties": {"Data collector name": "Francis Chimbalanga", "Health facility name": "Lundu", "Village name": "Lidala", "_id": 250499181, "_uuid": "2f165be5-1b90-476c-9ad7-166838bb5413", "_submission_time": "2023-07-05T13:31:21", "_status": "submitted_via_web", "__version__": "vPgp5uDTCetJnwuiTjaEws", "_index": 224}},
{"type": "Feature", "geometry": {"type": "Point", "coordinates": [34.9798465, -15.4164022, 495.97340919356793]}, "properties": {"Data collector name": "Francis Chimbalanga", "Health facility name": "Lundu", "Village name": "Molosoni", "_id": 250499184, "_uuid": "3429f195-0a11-42b5-86e0-64682efba8e1", "_submission_time": "2023-07-05T13:31:22", "_status": "submitted_via_web", "__version__": "vPgp5uDTCetJnwuiTjaEws", "_index": 225}},
{"type": "Feature", "geometry": {"type": "Point", "coordinates": [35.0092934, -15.4412036, 503.3899450227618]}, "properties": {"Data collector name": "Francis Chimbalanga", "Health facility name": "Lundu", "Village name": "Mulumbe", "_id": 250499187, "_uuid": "32e5d3ca-663d-4bf4-acea-0f4a338f453a", "_submission_time": "2023-07-05T13:31:22", "_status": "submitted_via_web", "__version__": "vPgp5uDTCetJnwuiTjaEws", "_index": 226}},
{"type": "Feature", "geometry": {"type": "Point", "coordinates": [35.0179021, -15.4099513, 487.7115464899689]}, "properties": {"Data collector name": "Francis Chimbalanga", "Health facility name": "Lundu", "Village name": "Maole", "_id": 250499192, "_uuid": "20770948-2187-4652-9ac7-39f281679b5c", "_submission_time": "2023-07-05T13:31:22", "_status": "submitted_via_web", "__version__": "vPgp5uDTCetJnwuiTjaEws", "_index": 227}},
{"type": "Feature", "geometry": {"type": "Point", "coordinates": [35.0151405, -15.4036383, 484.45320331677794]}, "properties": {"Data collector name": "Francis Chimbalanga", "Health facility name": "Lundu", "Village name": "Pindani", "_id": 250499196, "_uuid": "32672f9e-5e35-4293-89e8-1895c33be8a3", "_submission_time": "2023-07-05T13:31:23", "_status": "submitted_via_web", "__version__": "vPgp5uDTCetJnwuiTjaEws", "_index": 228}},
{"type": "Feature", "geometry": {"type": "Point", "coordinates": [35.0205898, -15.4122732, 493.74360478203744]}, "properties": {"Data collector name": "Francis Chimbalanga", "Health facility name": "Lundu", "Village name": "Malume", "_id": 250499201, "_uuid": "7ffff510-f3d5-4f32-a6a8-ef14f89155cb", "_submission_time": "2023-07-05T13:31:23", "_status": "submitted_via_web", "__version__": "vPgp5uDTCetJnwuiTjaEws", "_index": 229}},
{"type": "Feature", "geometry": {"type": "Point", "coordinates": [35.0153323, -15.3928719, 477.5769149698317]}, "properties": {"Data collector name": "Francis Chimbalanga", "Health facility name": "Lundu", "Village name": "Hendele", "_id": 250499205, "_uuid": "cc4656be-7274-4090-9ca4-3fe12421caf8", "_submission_time": "2023-07-05T13:31:24", "_status": "submitted_via_web", "__version__": "vPgp5uDTCetJnwuiTjaEws", "_index": 230}},
{"type": "Feature", "geometry": {"type": "Point", "coordinates": [35.02464, -15.4156555, 497.66795127186924]},